{
"type": "FeatureCollection",
"name": "government_hospitals",
"crs": { "type": "name", "properties": { "name": "urn:ogc:def:crs:OGC:1.3:CRS84" } },
"features": [
{ "type": "Feature", "properties": { "location/l": 7.4791218, "location_1": 80.3591149, "city": "Kurunegala", "street": "176 Ambepussa - Trincomalee Hwy", "title": "Teaching Hospital - Kurunegala", "phone": "+94 372 222 261", "categoryNa": "Government hospital" }, "geometry": { "type": "Point", "coordinates": [ 80.3591149, 7.4791218 ] } },
{ "type": "Feature", "properties": { "location/l": 7.4720425, "location_1": 80.0446242, "city": "Kuliyapitiya", "street": "F2CV+RR9", "title": "Teaching Hospital Kuliyapitiya", "phone": "+94 372 281 261", "categoryNa": "Government hospital" }, "geometry": { "type": "Point", "coordinates": [ 80.0446242, 7.4720425 ] } },
{ "type": "Feature", "properties": { "location/l": 7.4311221, "location_1": 80.2064232, "city": null, "street": "Narammala District Hospital, New Hospital Road", "title": "Narammala Divisional Hospital", "phone": "+94 372 249 261", "categoryNa": "Government hospital" }, "geometry": { "type": "Point", "coordinates": [ 80.2064232, 7.4311221 ] } },
{ "type": "Feature", "properties": { "location/l": 7.7474755, "location_1": 80.1144457, "city": "Nikaweratiya", "street": "P4W7+XQW, Heelogama Road", "title": "Base Hospital - Nikaweratiya", "phone": "+94 372 260 261", "categoryNa": "Government hospital" }, "geometry": { "type": "Point", "coordinates": [ 80.1144457, 7.7474755 ] } },
{ "type": "Feature", "properties": { "location/l": 7.8850888, "location_1": 80.0024897, "city": "Anamaduwa", "street": "Puttlum Road A10", "title": "Anamaduwa Base Hospital", "phone": "+94 322 263 261", "categoryNa": "Government hospital" }, "geometry": { "type": "Point", "coordinates": [ 80.0024897, 7.8850888 ] } },
{ "type": "Feature", "properties": { "location/l": 7.956446, "location_1": 79.9439317, "city": "Kottukachchiya", "street": "XW4V+HHF", "title": "Kottukachchiya Government Hospital", "phone": null, "categoryNa": "Government hospital" }, "geometry": { "type": "Point", "coordinates": [ 79.9439317, 7.956446 ] } },
{ "type": "Feature", "properties": { "location/l": 7.7518258, "location_1": 80.3031358, "city": "Maho", "street": "Q823+P7J", "title": "Divisional Hospital (C) - Nagollagama", "phone": null, "categoryNa": "Government hospital" }, "geometry": { "type": "Point", "coordinates": [ 80.3031358, 7.7518258 ] } },
{ "type": "Feature", "properties": { "location/l": 8.1167112, "location_1": 80.1933584, "city": "Pahala Giribawa", "street": "Mahagalkadawala - Warawewa", "title": "Pahala Giribawa Divisional Hospital", "phone": "+94 372 053 606", "categoryNa": "Government hospital" }, "geometry": { "type": "Point", "coordinates": [ 80.1933584, 8.1167112 ] } },
{ "type": "Feature", "properties": { "location/l": 8.0279019, "location_1": 79.8387402, "city": "Puttalam", "street": "2RHQ+5F9, Katugastota-Kurunegala-Puttalam Hwy", "title": "Base Hospital Puttalam", "phone": "+94 322 265 261", "categoryNa": "Government hospital" }, "geometry": { "type": "Point", "coordinates": [ 79.8387402, 8.0279019 ] } },
{ "type": "Feature", "properties": { "location/l": 7.5723298, "location_1": 79.7973064, "city": "Chilaw", "street": "HQFW+397 General Hospital", "title": "District General Hospital Chilaw", "phone": "+94 322 223 261", "categoryNa": "Government hospital" }, "geometry": { "type": "Point", "coordinates": [ 79.7973064, 7.5723298 ] } },
{ "type": "Feature", "properties": { "location/l": 7.4840128, "location_1": 79.8321084, "city": "Madampe", "street": "Madampe Hospital, Kurunegala-Narammala-Madampe Rd", "title": "Divisional Hospital (Senanayake Hospital) - Madampe", "phone": "+94 322 247 661", "categoryNa": "Government hospital" }, "geometry": { "type": "Point", "coordinates": [ 79.8321084, 7.4840128 ] } },
{ "type": "Feature", "properties": { "location/l": 7.7889712, "location_1": 79.8277484, "city": null, "street": "Mundel, Puttalam - Colombo Rd", "title": "Mundel Divisional Hospital", "phone": "+94 323 224 261", "categoryNa": "Government hospital" }, "geometry": { "type": "Point", "coordinates": [ 79.8277484, 7.7889712 ] } },
{ "type": "Feature", "properties": { "location/l": 7.8549182, "location_1": 79.7915966, "city": "Panichchavillu", "street": "VQ3R+XJ9", "title": "Kottantivu Rural Hospital", "phone": null, "categoryNa": "Government hospital" }, "geometry": { "type": "Point", "coordinates": [ 79.7915966, 7.8549182 ] } },
{ "type": "Feature", "properties": { "location/l": 7.3936675, "location_1": 79.8324229, "city": "Marawila", "street": "9RVJ+FX7", "title": "Base Hospital, Marawila | මූලික රෝහල, මාරවිල", "phone": "+94 322 254 261", "categoryNa": "Government hospital" }, "geometry": { "type": "Point", "coordinates": [ 79.8324229, 7.3936675 ] } },
{ "type": "Feature", "properties": { "location/l": 7.3486348, "location_1": 80.1373146, "city": null, "street": "Negombo Rd", "title": "Base Hospital - Dambadeniya | මූලික රෝහල - දඹදෙණිය", "phone": "+94 372 266 842", "categoryNa": "Government hospital" }, "geometry": { "type": "Point", "coordinates": [ 80.1373146, 7.3486348 ] } },
{ "type": "Feature", "properties": { "location/l": 7.3206791, "location_1": 79.9739785, "city": null, "street": "Negombo-Kurunegala Rd", "title": "Makandura Hospital", "phone": "+94 312 299 661", "categoryNa": "Government hospital" }, "geometry": { "type": "Point", "coordinates": [ 79.9739785, 7.3206791 ] } },
{ "type": "Feature", "properties": { "location/l": 7.6053447, "location_1": 80.0789545, "city": null, "street": "Wariyapola Road", "title": "Hettipola Divisional Hospital", "phone": "+94 372 291 061", "categoryNa": "Government hospital" }, "geometry": { "type": "Point", "coordinates": [ 80.0789545, 7.6053447 ] } },
{ "type": "Feature", "properties": { "location/l": 7.3485853, "location_1": 79.8615405, "city": null, "street": "Wennappuwa-Lunuwila-Kiremetiyana Rd", "title": "Divisional Hospital - Lunuwila", "phone": "+94 312 255 261", "categoryNa": "Government hospital" }, "geometry": { "type": "Point", "coordinates": [ 79.8615405, 7.3485853 ] } },
{ "type": "Feature", "properties": { "location/l": 7.291867, "location_1": 80.185879, "city": "Siyambalapitiya", "street": "75RP+P9R, Nawathalwattha", "title": "Nawathalwaththa Hospital", "phone": null, "categoryNa": "Government hospital" }, "geometry": { "type": "Point", "coordinates": [ 80.185879, 7.291867 ] } },
{ "type": "Feature", "properties": { "location/l": 7.4398848, "location_1": 79.9366468, "city": null, "street": "Marawila - Udubaddawa Rd", "title": "Divisional Hospital - Dunakadeniya", "phone": "+94 322 256 660", "categoryNa": "Government hospital" }, "geometry": { "type": "Point", "coordinates": [ 79.9366468, 7.4398848 ] } },
{ "type": "Feature", "properties": { "location/l": 7.3750968, "location_1": 79.8992032, "city": null, "street": "Koswatta Rd", "title": "Primary Medical Care Unit (Central Dispensary) Koswatta", "phone": "+94 313 719 943", "categoryNa": "Government hospital" }, "geometry": { "type": "Point", "coordinates": [ 79.8992032, 7.3750968 ] } },
{ "type": "Feature", "properties": { "location/l": 8.027554, "location_1": 79.8357005, "city": "Puttalam", "street": "2RHP+27G", "title": "Divitional Veternary Surgeon's Office Puttalam", "phone": null, "categoryNa": "Government hospital" }, "geometry": { "type": "Point", "coordinates": [ 79.8357005, 8.027554 ] } },
{ "type": "Feature", "properties": { "location/l": 7.4322383, "location_1": 80.2119939, "city": "Narammala", "street": "C6J6+VQX", "title": "Ayurweda Hospital", "phone": "+94 71 124 2600", "categoryNa": "Government hospital" }, "geometry": { "type": "Point", "coordinates": [ 80.2119939, 7.4322383 ] } },
{ "type": "Feature", "properties": { "location/l": 7.4578353, "location_1": 79.8628375, "city": "Kudawewa", "street": "FV57+44P, Deniya Road", "title": "Primary Medical Care Unit (Central Dispensary) - Walahapitiya", "phone": "+94 322 050 161", "categoryNa": "Government hospital" }, "geometry": { "type": "Point", "coordinates": [ 79.8628375, 7.4578353 ] } },
{ "type": "Feature", "properties": { "location/l": 7.5366678, "location_1": 79.8718311, "city": "Madampe", "street": "GVPC+MP8, Kakkapalliya-Medagama Road, Thambagalla,", "title": "Primary Medical Care Unit (Central Dispensary) -Thambagalla", "phone": "+94 322 240 263", "categoryNa": "Government hospital" }, "geometry": { "type": "Point", "coordinates": [ 79.8718311, 7.5366678 ] } },
{ "type": "Feature", "properties": { "location/l": 7.4892431, "location_1": 79.9226983, "city": "Dummalasuriya", "street": "kattimahana", "title": "Primary Medical Care Unit - Kattimahana", "phone": null, "categoryNa": "Government hospital" }, "geometry": { "type": "Point", "coordinates": [ 79.9226983, 7.4892431 ] } },
{ "type": "Feature", "properties": { "location/l": 7.4521665, "location_1": 79.8270476, "city": "Mahawewa", "street": "FR2G+VR7", "title": "මහවැව පවුල් සෞඛ්‍ය සේවා", "phone": null, "categoryNa": "Government hospital" }, "geometry": { "type": "Point", "coordinates": [ 79.8270476, 7.4521665 ] } },
{ "type": "Feature", "properties": { "location/l": 7.3409451, "location_1": 79.8907479, "city": "Kirimatiyana Junction", "street": "8VRR+97H", "title": "Central Dispensary Kirimetiyana", "phone": null, "categoryNa": "Government hospital" }, "geometry": { "type": "Point", "coordinates": [ 79.8907479, 7.3409451 ] } },
{ "type": "Feature", "properties": { "location/l": 7.2979671, "location_1": 80.2305629, "city": "Alawwa", "street": "76XJ+56P, B9", "title": "Alawwa Divisional Hospital - A | අලව්ව දිසා රෝහල", "phone": "+94 372 278 161", "categoryNa": "Government hospital" }, "geometry": { "type": "Point", "coordinates": [ 80.2305629, 7.2979671 ] } },
{ "type": "Feature", "properties": { "location/l": 7.598636, "location_1": 79.9319831, "city": "Bingiriya", "street": "HWXJ+FQ5, B79", "title": "District Hospital Bingiriya", "phone": "+94 322 246 160", "categoryNa": "Government hospital" }, "geometry": { "type": "Point", "coordinates": [ 79.9319831, 7.598636 ] } },
{ "type": "Feature", "properties": { "location/l": 7.585624, "location_1": 80.4750574, "city": "Gokarella", "street": "HFPG+62V, A6", "title": "Divisional Hospital-Gokarella", "phone": "+94 372 250 560", "categoryNa": "Government hospital" }, "geometry": { "type": "Point", "coordinates": [ 80.4750574, 7.585624 ] } },
{ "type": "Feature", "properties": { "location/l": 7.6556637, "location_1": 80.3675129, "city": null, "street": "M949+726, Ganewatta Rd", "title": "Divisional Hospital Hiripitiya", "phone": "+94 372 264 061", "categoryNa": "Government hospital" }, "geometry": { "type": "Point", "coordinates": [ 80.3675129, 7.6556637 ] } },
{ "type": "Feature", "properties": { "location/l": 7.4470312, "location_1": 80.518598, "city": "Keppitigala", "street": "CGW9+RC9", "title": "Divisional Hospital (C) - Gonigoda", "phone": "+94 373 142 661", "categoryNa": "Government hospital" }, "geometry": { "type": "Point", "coordinates": [ 80.518598, 7.4470312 ] } },
{ "type": "Feature", "properties": { "location/l": 7.479254, "location_1": 80.3602423, "city": "Kurunegala", "street": "F9H6+P35", "title": "Maternity Ward Complex", "phone": null, "categoryNa": "Government hospital" }, "geometry": { "type": "Point", "coordinates": [ 80.3602423, 7.479254 ] } }
]
}
