{
"type": "FeatureCollection",
"name": "Office",
"crs": { "type": "name", "properties": { "name": "urn:ogc:def:crs:OGC:1.3:CRS84" } },
"features": [
{ "type": "Feature", "properties": { "location/l": 8.0271964, "location_1": 79.832612, "title": "Puttalam Urban Council-office", "placeId": "ChIJGdDcAgsW_ToR_1Q2ywCNXeg", "address": "2RGM+V2H, Puttalam, Sri Lanka", "phone": "+94 322 265 275", "categoryNa": "Government office", "state": null, "city": "Puttalam", "additional": null, "addition_1": null, "addition_2": null, "addition_3": null, "addition_4": null, "addition_5": null, "addition_6": null, "addition_7": null, "addition_8": null, "addition_9": null, "addition10": null, "addition11": null, "addition12": null, "addition13": null }, "geometry": { "type": "Point", "coordinates": [ 79.832612, 8.0271964 ] } },
{ "type": "Feature", "properties": { "location/l": 7.5779798, "location_1": 79.7945273, "title": "Urban Council - Chilaw", "placeId": "ChIJ_5C639fL4joRbvXBRkUHx00", "address": "Urban Council, Chilaw, Sri Lanka", "phone": "+94 322 222 275", "categoryNa": "City government office", "state": null, "city": "Chilaw", "additional": null, "addition_1": null, "addition_2": null, "addition_3": null, "addition_4": null, "addition_5": null, "addition_6": null, "addition_7": null, "addition_8": null, "addition_9": null, "addition10": null, "addition11": null, "addition12": null, "addition13": null }, "geometry": { "type": "Point", "coordinates": [ 79.7945273, 7.5779798 ] } },
{ "type": "Feature", "properties": { "location/l": 7.8734855, "location_1": 80.0094604, "title": "Anamaduwa Pradeshiya Sabawa", "placeId": "ChIJQ_YfDXgm_ToRD6tlQzP2AYU", "address": "V2F5+9QW, B45, Anamaduwa, Sri Lanka", "phone": "+94 322 263 275", "categoryNa": "Government", "state": null, "city": "Anamaduwa", "additional": null, "addition_1": null, "addition_2": null, "addition_3": null, "addition_4": null, "addition_5": null, "addition_6": null, "addition_7": null, "addition_8": null, "addition_9": null, "addition10": null, "addition11": null, "addition12": null, "addition13": null }, "geometry": { "type": "Point", "coordinates": [ 80.0094604, 7.8734855 ] } },
{ "type": "Feature", "properties": { "location/l": 7.8174175, "location_1": 80.4042264, "title": "Polpithigama Pradeshiya Sabha", "placeId": "ChIJtcJMr_DI_DoR8k_Bm49GZ6M", "address": "Ibbagamuwa-Kumbukgete-Madagalla Rd, Sri Lanka", "phone": "+94 372 273 082", "categoryNa": "Government office", "state": null, "city": null, "additional": null, "addition_1": null, "addition_2": null, "addition_3": null, "addition_4": null, "addition_5": null, "addition_6": null, "addition_7": null, "addition_8": null, "addition_9": null, "addition10": null, "addition11": null, "addition12": null, "addition13": null }, "geometry": { "type": "Point", "coordinates": [ 80.4042264, 7.8174175 ] } },
{ "type": "Feature", "properties": { "location/l": 8.0802749, "location_1": 80.2280913, "title": "Giribawa pradeshiya sabha", "placeId": "ChIJ8ybz7PTm_DoRzNMTI-ghhkY", "address": "36JH+464, Pahala Giribawa, Sri Lanka", "phone": "+94 372 053 688", "categoryNa": "Local government office", "state": null, "city": "Pahala Giribawa", "additional": null, "addition_1": null, "addition_2": null, "addition_3": null, "addition_4": null, "addition_5": null, "addition_6": null, "addition_7": null, "addition_8": null, "addition_9": null, "addition10": null, "addition11": null, "addition12": null, "addition13": null }, "geometry": { "type": "Point", "coordinates": [ 80.2280913, 8.0802749 ] } },
{ "type": "Feature", "properties": { "location/l": 8.0571276, "location_1": 79.9612323, "title": "Karuwalagaswewa Pradeshiya Sabha", "placeId": "ChIJ0yKzrKsZ_ToRBKaG7UhKtvU", "address": "3X46+VF5, Karuwalagaswewa, Sri Lanka", "phone": "+94 322 267 917", "categoryNa": "Government office", "state": null, "city": "Karuwalagaswewa", "additional": null, "addition_1": null, "addition_2": null, "addition_3": null, "addition_4": null, "addition_5": null, "addition_6": null, "addition_7": null, "addition_8": null, "addition_9": null, "addition10": null, "addition11": null, "addition12": null, "addition13": null }, "geometry": { "type": "Point", "coordinates": [ 79.9612323, 8.0571276 ] } },
{ "type": "Feature", "properties": { "location/l": 7.8210698, "location_1": 80.2736342, "title": "Mahawa Pradeshiya Sabhawa", "placeId": "ChIJtfkErCHQ_DoR0eHiHO37_2k", "address": "R7CF+CFC, Nikaweratiya - Moragollagama - Siyambalangamuwa, Maho 60600, Sri Lanka", "phone": "+94 372 275 275", "categoryNa": "Government office", "state": null, "city": "Maho", "additional": null, "addition_1": null, "addition_2": null, "addition_3": null, "addition_4": null, "addition_5": null, "addition_6": null, "addition_7": null, "addition_8": null, "addition_9": null, "addition10": null, "addition11": null, "addition12": null, "addition13": null }, "geometry": { "type": "Point", "coordinates": [ 80.2736342, 7.8210698 ] } },
{ "type": "Feature", "properties": { "location/l": 7.7522109, "location_1": 80.1183034, "title": "Nikaweratiya pradesiya sabhawa", "placeId": "ChIJNV1lVADV_DoRaAqvzZrycWs", "address": "Q429+V8M, Maho, road, Nikaweratiya, Sri Lanka", "phone": "+94 372 260 275", "categoryNa": "Local government office", "state": null, "city": "Nikaweratiya", "additional": null, "addition_1": null, "addition_2": null, "addition_3": null, "addition_4": null, "addition_5": null, "addition_6": null, "addition_7": null, "addition_8": null, "addition_9": null, "addition10": null, "addition11": null, "addition12": null, "addition13": null }, "geometry": { "type": "Point", "coordinates": [ 80.1183034, 7.7522109 ] } },
{ "type": "Feature", "properties": { "location/l": 8.0023498, "location_1": 80.106322, "title": "Padeshiya Saba , Nawagattegama", "placeId": "ChIJ14TL9PDf_DoR0ZCwDIffQsg", "address": "2424+WGP, Nawagattegama, Sri Lanka", "phone": null, "categoryNa": "Local government office", "state": null, "city": "Nawagattegama", "additional": null, "addition_1": null, "addition_2": null, "addition_3": null, "addition_4": null, "addition_5": null, "addition_6": null, "addition_7": null, "addition_8": null, "addition_9": null, "addition10": null, "addition11": null, "addition12": null, "addition13": null }, "geometry": { "type": "Point", "coordinates": [ 80.106322, 8.0023498 ] } },
{ "type": "Feature", "properties": { "location/l": 8.0014962, "location_1": 80.2758041, "title": "Pradeshiya Lekam karyalaya", "placeId": "ChIJY3TF2L3d_DoRYeS6b97TMw8", "address": "272G+H8V, Arasanwewa Circular Road, Galgamuwa, Sri Lanka", "phone": "+94 372 253 465", "categoryNa": "Government office", "state": null, "city": "Galgamuwa", "additional": null, "addition_1": null, "addition_2": null, "addition_3": null, "addition_4": null, "addition_5": null, "addition_6": null, "addition_7": null, "addition_8": null, "addition_9": null, "addition10": null, "addition11": null, "addition12": null, "addition13": null }, "geometry": { "type": "Point", "coordinates": [ 80.2758041, 8.0014962 ] } },
{ "type": "Feature", "properties": { "location/l": 8.0013672, "location_1": 80.275905, "title": "Divisional Secretariat Galgamuwa", "placeId": "ChIJOdp1Rkvd_DoRIWpjFBHyNQ0", "address": "272G+G9R, Arasanwewa Circular Road, Galgamuwa, Sri Lanka", "phone": "+94 372 253 465", "categoryNa": "Government office", "state": null, "city": "Galgamuwa", "additional": null, "addition_1": null, "addition_2": null, "addition_3": null, "addition_4": null, "addition_5": null, "addition_6": null, "addition_7": null, "addition_8": null, "addition_9": null, "addition10": null, "addition11": null, "addition12": null, "addition13": null }, "geometry": { "type": "Point", "coordinates": [ 80.275905, 8.0013672 ] } },
{ "type": "Feature", "properties": { "location/l": 7.4907188, "location_1": 80.3671112, "title": "Municipal Council", "placeId": "ChIJf7GtMPY54zoR6ZJKPEBf4l0", "address": "F9R8+7RQ, Kurunegala, Sri Lanka", "phone": "+94 372 222 275", "categoryNa": "Government", "state": null, "city": "Kurunegala", "additional": null, "addition_1": null, "addition_2": null, "addition_3": null, "addition_4": null, "addition_5": null, "addition_6": null, "addition_7": null, "addition_8": null, "addition_9": null, "addition10": null, "addition11": null, "addition12": null, "addition13": null }, "geometry": { "type": "Point", "coordinates": [ 80.3671112, 7.4907188 ] } },
{ "type": "Feature", "properties": { "location/l": 8.1876639, "location_1": 79.8601405, "title": "Divisional Secretariat, Wanathawilluwa.", "placeId": "ChIJCUt_ViQO_ToRCNHtLTM75xk", "address": "5VQ6+336, Wanathavilluwa, Sri Lanka", "phone": "+94 323 328 258", "categoryNa": "Government office", "state": null, "city": "Wanathavilluwa", "additional": null, "addition_1": null, "addition_2": null, "addition_3": null, "addition_4": null, "addition_5": null, "addition_6": null, "addition_7": null, "addition_8": null, "addition_9": null, "addition10": null, "addition11": null, "addition12": null, "addition13": null }, "geometry": { "type": "Point", "coordinates": [ 79.8601405, 8.1876639 ] } },
{ "type": "Feature", "properties": { "location/l": 7.6253549, "location_1": 80.2424048, "title": "Wariyapola Pradeshiya Sabhawa", "placeId": "ChIJ8UihTq8t4zoRzX4Zp4LreGA", "address": "A10, Variyapola, Sri Lanka", "phone": "+94 372 267 275", "categoryNa": "Government", "state": null, "city": "Variyapola", "additional": null, "addition_1": null, "addition_2": null, "addition_3": null, "addition_4": null, "addition_5": null, "addition_6": null, "addition_7": null, "addition_8": null, "addition_9": null, "addition10": null, "addition11": null, "addition12": null, "addition13": null }, "geometry": { "type": "Point", "coordinates": [ 80.2424048, 7.6253549 ] } },
{ "type": "Feature", "properties": { "location/l": 7.9066805, "location_1": 79.8230982, "title": "Puttalam Pradeshiya Sabha", "placeId": "ChIJISeV6Vs5_ToRsSGO4fkNjoY", "address": "WR4F+M6H, Puttalam - Colombo Rd, Madurankuli, Sri Lanka", "phone": "+94 322 268 002", "categoryNa": "Government office", "state": null, "city": "Madurankuli", "additional": null, "addition_1": null, "addition_2": null, "addition_3": null, "addition_4": null, "addition_5": null, "addition_6": null, "addition_7": null, "addition_8": null, "addition_9": null, "addition10": null, "addition11": null, "addition12": null, "addition13": null }, "geometry": { "type": "Point", "coordinates": [ 79.8230982, 7.9066805 ] } },
{ "type": "Feature", "properties": { "location/l": 7.9103381, "location_1": 79.8233148, "title": "PRADESHIYA SABHA MULTI PURPOSE BUILDING", "placeId": "ChIJi3vnZBo5_ToRlZYUTaFeq2k", "address": "WR6F+48P, A3, Madurankuli, Sri Lanka", "phone": "+94 322 039 902", "categoryNa": "Government office", "state": null, "city": "Madurankuli", "additional": null, "addition_1": null, "addition_2": null, "addition_3": null, "addition_4": null, "addition_5": null, "addition_6": null, "addition_7": null, "addition_8": null, "addition_9": null, "addition10": null, "addition11": null, "addition12": null, "addition13": null }, "geometry": { "type": "Point", "coordinates": [ 79.8233148, 7.9103381 ] } },
{ "type": "Feature", "properties": { "location/l": 8.2363979, "location_1": 79.7655471, "title": "Kalpitiya Pradeshiya Sabha", "placeId": "ChIJYVZQC-kM_ToRtB-jzXs6cGs", "address": "6QP8+H63, Road, Kalpitiya, Sri Lanka", "phone": "+94 322 260 274", "categoryNa": "City government office", "state": null, "city": "Kalpitiya", "additional": null, "addition_1": null, "addition_2": null, "addition_3": null, "addition_4": null, "addition_5": null, "addition_6": null, "addition_7": null, "addition_8": null, "addition_9": null, "addition10": null, "addition11": null, "addition12": null, "addition13": null }, "geometry": { "type": "Point", "coordinates": [ 79.7655471, 8.2363979 ] } },
{ "type": "Feature", "properties": { "location/l": 8.0303201, "location_1": 79.8356704, "title": "Puttalam Divisional Secretariat", "placeId": "ChIJ-QkGXHMW_ToRlbTBOCWa__g", "address": "2RJP+47F, Puttalam, Sri Lanka", "phone": "+94 322 265 358", "categoryNa": "Government office", "state": null, "city": "Puttalam", "additional": null, "addition_1": null, "addition_2": null, "addition_3": null, "addition_4": null, "addition_5": null, "addition_6": null, "addition_7": null, "addition_8": null, "addition_9": null, "addition10": null, "addition11": null, "addition12": null, "addition13": null }, "geometry": { "type": "Point", "coordinates": [ 79.8356704, 8.0303201 ] } },
{ "type": "Feature", "properties": { "location/l": 7.9066418, "location_1": 79.8234461, "title": "Puttalam Pradeshiya Sabha - elibrary", "placeId": "ChIJB_vI4LM5_ToRkiCvw7N9uWc", "address": "WR4F+M94, Madurankuli, Sri Lanka", "phone": "+94 322 268 125", "categoryNa": "Library", "state": null, "city": "Madurankuli", "additional": null, "addition_1": null, "addition_2": null, "addition_3": null, "addition_4": null, "addition_5": null, "addition_6": null, "addition_7": null, "addition_8": null, "addition_9": null, "addition10": null, "addition11": null, "addition12": null, "addition13": null }, "geometry": { "type": "Point", "coordinates": [ 79.8234461, 7.9066418 ] } },
{ "type": "Feature", "properties": { "location/l": 7.6713225, "location_1": 79.8343675, "title": "Arachchikattuwa Pradeshiya Sabha", "placeId": "ChIJi4ruD5cz_ToR_OUL-fb9Nq8", "address": "MRCM+GPH, Nalladarankattuwa, Sri Lanka", "phone": "+94 322 259 783", "categoryNa": "Federal government office", "state": null, "city": "Nalladarankattuwa", "additional": null, "addition_1": null, "addition_2": null, "addition_3": null, "addition_4": null, "addition_5": null, "addition_6": null, "addition_7": null, "addition_8": null, "addition_9": null, "addition10": null, "addition11": null, "addition12": null, "addition13": null }, "geometry": { "type": "Point", "coordinates": [ 79.8343675, 7.6713225 ] } },
{ "type": "Feature", "properties": { "location/l": 7.6648526, "location_1": 80.1265568, "title": "කොබෙයිගනේ ප්‍රාදේශීය සභාව/kobeigane pradeshiya sabha", "placeId": "ChIJqZ4Wvk4r4zoRnJIvfaVpeP4", "address": "M47G+WJV, Alahenegama Road, Kobeigane, Sri Lanka", "phone": "+94 372 293 076", "categoryNa": "Government office", "state": null, "city": "Kobeigane", "additional": null, "addition_1": null, "addition_2": null, "addition_3": null, "addition_4": null, "addition_5": null, "addition_6": null, "addition_7": null, "addition_8": null, "addition_9": null, "addition10": null, "addition11": null, "addition12": null, "addition13": null }, "geometry": { "type": "Point", "coordinates": [ 80.1265568, 7.6648526 ] } },
{ "type": "Feature", "properties": { "location/l": 7.746636, "location_1": 80.1181734, "title": "Divisional Secretariat Nikaweratiya", "placeId": "ChIJAQAAANDV_DoROxIldbgfXw0", "address": "P4W9+M73, Nikaweratiya, Sri Lanka", "phone": "+94 372 260 238", "categoryNa": "Government office", "state": null, "city": "Nikaweratiya", "additional": null, "addition_1": null, "addition_2": null, "addition_3": null, "addition_4": null, "addition_5": null, "addition_6": null, "addition_7": null, "addition_8": null, "addition_9": null, "addition10": null, "addition11": null, "addition12": null, "addition13": null }, "geometry": { "type": "Point", "coordinates": [ 80.1181734, 7.746636 ] } },
{ "type": "Feature", "properties": { "location/l": 7.5060312, "location_1": 80.343446, "title": "Kurunegala Pradeshiya Sabha", "placeId": "ChIJw33uscA74zoRzxQ6dCn-0sI", "address": "G84V+C98, Kurunegala, Sri Lanka", "phone": "+94 372 222 551", "categoryNa": "Regional government office", "state": null, "city": "Kurunegala", "additional": null, "addition_1": null, "addition_2": null, "addition_3": null, "addition_4": null, "addition_5": null, "addition_6": null, "addition_7": null, "addition_8": null, "addition_9": null, "addition10": null, "addition11": null, "addition12": null, "addition13": null }, "geometry": { "type": "Point", "coordinates": [ 80.343446, 7.5060312 ] } },
{ "type": "Feature", "properties": { "location/l": 7.4641463, "location_1": 80.0774594, "title": "Kuliyapitiya Pradeshiya Sabha. ප්‍රාදේශීය සභාව කුලියාපිටිය", "placeId": "ChIJh_t3CmfY4joRfEb17b8fhco", "address": "F37G+MX4 Bohingamuwa, Kuliyapitiya, Sri Lanka", "phone": "+94 374 947 212", "categoryNa": "Government office", "state": null, "city": "Kuliyapitiya", "additional": null, "addition_1": null, "addition_2": null, "addition_3": null, "addition_4": null, "addition_5": null, "addition_6": null, "addition_7": null, "addition_8": null, "addition_9": null, "addition10": null, "addition11": null, "addition12": null, "addition13": null }, "geometry": { "type": "Point", "coordinates": [ 80.0774594, 7.4641463 ] } },
{ "type": "Feature", "properties": { "location/l": 7.5996351, "location_1": 79.9648205, "title": "Bingiriya Pradeshiya Sabha", "placeId": "ChIJD4WmMMvT4joRFTcw7bQT8Ss", "address": "HXX7+VW4, B79, Bowatta, Sri Lanka", "phone": "+94 322 245 888", "categoryNa": "Government office", "state": null, "city": "Bowatta", "additional": null, "addition_1": null, "addition_2": null, "addition_3": null, "addition_4": null, "addition_5": null, "addition_6": null, "addition_7": null, "addition_8": null, "addition_9": null, "addition10": null, "addition11": null, "addition12": null, "addition13": null }, "geometry": { "type": "Point", "coordinates": [ 79.9648205, 7.5996351 ] } },
{ "type": "Feature", "properties": { "location/l": 7.4699881, "location_1": 80.041379, "title": "Kuliyapitiya - Urban Council", "placeId": "ChIJCYwqbbrZ4joR3RBwnGrwmCo", "address": "Urban Council Shopping Complex, Kuliyapitiya 60200, Sri Lanka", "phone": "+94 372 281 275", "categoryNa": "Municipal administration office", "state": null, "city": "Kuliyapitiya", "additional": null, "addition_1": null, "addition_2": null, "addition_3": null, "addition_4": null, "addition_5": null, "addition_6": null, "addition_7": null, "addition_8": null, "addition_9": null, "addition10": null, "addition11": null, "addition12": null, "addition13": null }, "geometry": { "type": "Point", "coordinates": [ 80.041379, 7.4699881 ] } },
{ "type": "Feature", "properties": { "location/l": 8.2295281, "location_1": 79.7596142, "title": "Udapalatha pradeshiya sabawa", "placeId": "ChIJ6a11awAN_ToRsL3g4SVUDsY", "address": "6QH5+RR9, Kalpitiya, Sri Lanka", "phone": null, "categoryNa": "Government office", "state": null, "city": "Kalpitiya", "additional": null, "addition_1": null, "addition_2": null, "addition_3": null, "addition_4": null, "addition_5": null, "addition_6": null, "addition_7": null, "addition_8": null, "addition_9": null, "addition10": null, "addition11": null, "addition12": null, "addition13": null }, "geometry": { "type": "Point", "coordinates": [ 79.7596142, 8.2295281 ] } },
{ "type": "Feature", "properties": { "location/l": 7.4125111, "location_1": 79.8656023, "title": "Nattandiya Municipal Council", "placeId": "ChIJAQBQonnE4joR1YlkSDgStgs", "address": "CV78+265, Toppuwa - Madampe Rd, Nattandiya, Sri Lanka", "phone": null, "categoryNa": "Government", "state": null, "city": "Nattandiya", "additional": null, "addition_1": null, "addition_2": null, "addition_3": null, "addition_4": null, "addition_5": null, "addition_6": null, "addition_7": null, "addition_8": null, "addition_9": null, "addition10": null, "addition11": null, "addition12": null, "addition13": null }, "geometry": { "type": "Point", "coordinates": [ 79.8656023, 7.4125111 ] } },
{ "type": "Feature", "properties": { "location/l": 7.4125061, "location_1": 79.8656532, "title": "Nattandiya Pradeshiya Sabha", "placeId": "ChIJLzClPOnF4joRSuIU9_KGD2w", "address": "CV78+272 Pradeshiya Sabha, Toppuwa - Madampe Rd, Nattandiya, Sri Lanka", "phone": "+94 324 934 143", "categoryNa": "City government office", "state": null, "city": "Nattandiya", "additional": null, "addition_1": null, "addition_2": null, "addition_3": null, "addition_4": null, "addition_5": null, "addition_6": null, "addition_7": null, "addition_8": null, "addition_9": null, "addition10": null, "addition11": null, "addition12": null, "addition13": null }, "geometry": { "type": "Point", "coordinates": [ 79.8656532, 7.4125061 ] } },
{ "type": "Feature", "properties": { "location/l": 7.3280598, "location_1": 80.0220644, "title": "Pannala Pradeshiya Sabha", "placeId": "ChIJV8bMcx3e4joRcoNkaIorbVw", "address": "82HC+6RG, Negombo-Kurunegala Rd, Pannala, Sri Lanka", "phone": "+94 372 246 069", "categoryNa": "Government office", "state": null, "city": "Pannala", "additional": null, "addition_1": null, "addition_2": null, "addition_3": null, "addition_4": null, "addition_5": null, "addition_6": null, "addition_7": null, "addition_8": null, "addition_9": null, "addition10": null, "addition11": null, "addition12": null, "addition13": null }, "geometry": { "type": "Point", "coordinates": [ 80.0220644, 7.3280598 ] } },
{ "type": "Feature", "properties": { "location/l": 7.3374717, "location_1": 79.8432429, "title": "Wennappuwa Pradesiya Sabha", "placeId": "ChIJZUlK5xDC4joRDow7NmbNKdI", "address": "8RPV+X7Q, Puttalam Road, Wennappuwa, Sri Lanka", "phone": "+94 312 255 276", "categoryNa": "Local government office", "state": null, "city": "Wennappuwa", "additional": null, "addition_1": null, "addition_2": null, "addition_3": null, "addition_4": null, "addition_5": null, "addition_6": null, "addition_7": null, "addition_8": null, "addition_9": null, "addition10": null, "addition11": null, "addition12": null, "addition13": null }, "geometry": { "type": "Point", "coordinates": [ 79.8432429, 7.3374717 ] } },
{ "type": "Feature", "properties": { "location/l": 7.495675, "location_1": 79.850729, "title": "Chilaw Pradeshiya Sabha - Madampe", "placeId": "ChIJ0VYK_-DP4joR1V_sVebm3QA", "address": "FVW2+77H, Madampe, Sri Lanka", "phone": "+94 322 247 675", "categoryNa": "Corporate office", "state": null, "city": "Madampe", "additional": null, "addition_1": null, "addition_2": null, "addition_3": null, "addition_4": null, "addition_5": null, "addition_6": null, "addition_7": null, "addition_8": null, "addition_9": null, "addition10": null, "addition11": null, "addition12": null, "addition13": null }, "geometry": { "type": "Point", "coordinates": [ 79.850729, 7.495675 ] } },
{ "type": "Feature", "properties": { "location/l": 7.4129854, "location_1": 79.8654805, "title": "Nattandiya Pradeshiya Sabha | නාත්තන්ඩිය ප්‍රාදේශීය සභාව", "placeId": "ChIJm4QhmnnE4joRomIIrHu-bNE", "address": "CV78+55X, Nattandiya, Sri Lanka", "phone": "+94 322 254 276", "categoryNa": "Local government office", "state": null, "city": "Nattandiya", "additional": null, "addition_1": null, "addition_2": null, "addition_3": null, "addition_4": null, "addition_5": null, "addition_6": null, "addition_7": null, "addition_8": null, "addition_9": null, "addition10": null, "addition11": null, "addition12": null, "addition13": null }, "geometry": { "type": "Point", "coordinates": [ 79.8654805, 7.4129854 ] } },
{ "type": "Feature", "properties": { "location/l": 7.6046824, "location_1": 80.0775315, "title": "PANDUWASNUWARA PRADHESIA SABHA පඩුවස්නුවර ප්‍රාදේශීය සභාව,හෙට්ටිපොල", "placeId": "ChIJscPVnbnV4joRkL3GxNn4fww", "address": "J33H+V2F, Kurunegala, Sri Lanka", "phone": "+94 372 291 075", "categoryNa": "City government office", "state": null, "city": "Kurunegala", "additional": null, "addition_1": null, "addition_2": null, "addition_3": null, "addition_4": null, "addition_5": null, "addition_6": null, "addition_7": null, "addition_8": null, "addition_9": null, "addition10": null, "addition11": null, "addition12": null, "addition13": null }, "geometry": { "type": "Point", "coordinates": [ 80.0775315, 7.6046824 ] } },
{ "type": "Feature", "properties": { "location/l": 7.317852, "location_1": 79.8461436, "title": "Wennappuwa Pradheshiya sabha (sub office) - Kammalpaththuwa", "placeId": "ChIJ8-zg07Hp4joRkZjE4pf_1Yk", "address": "Kammalpaththuwa, Nainamadama 61120, Sri Lanka", "phone": "+94 312 255 275", "categoryNa": "Government office", "state": null, "city": "Nainamadama", "additional": null, "addition_1": null, "addition_2": null, "addition_3": null, "addition_4": null, "addition_5": null, "addition_6": null, "addition_7": null, "addition_8": null, "addition_9": null, "addition10": null, "addition11": null, "addition12": null, "addition13": null }, "geometry": { "type": "Point", "coordinates": [ 79.8461436, 7.317852 ] } },
{ "type": "Feature", "properties": { "location/l": 7.4846605, "location_1": 79.9685577, "title": "Multipurpus Building - Pradeshiya Saba Udubaddawa", "placeId": "ChIJDRTYSBHb4joRoXGnBGEqG4k", "address": "Udubaddawa Dialog, Kurunegala-Narammala-Madampe Rd, Udubaddawa, Sri Lanka", "phone": "+94 372 286 577", "categoryNa": "Corporate office", "state": null, "city": "Udubaddawa", "additional": null, "addition_1": null, "addition_2": null, "addition_3": null, "addition_4": null, "addition_5": null, "addition_6": null, "addition_7": null, "addition_8": null, "addition_9": null, "addition10": null, "addition11": null, "addition12": null, "addition13": null }, "geometry": { "type": "Point", "coordinates": [ 79.9685577, 7.4846605 ] } },
{ "type": "Feature", "properties": { "location/l": 7.5956055, "location_1": 79.9571597, "title": "Suddage watta Bingiriya pradeshiya sabha", "placeId": "ChIJ05OHuxHT4joREYflml5czjY", "address": "HXW4+6V, Bowatta, Sri Lanka", "phone": null, "categoryNa": "Government office", "state": null, "city": "Bowatta", "additional": null, "addition_1": null, "addition_2": null, "addition_3": null, "addition_4": null, "addition_5": null, "addition_6": null, "addition_7": null, "addition_8": null, "addition_9": null, "addition10": null, "addition11": null, "addition12": null, "addition13": null }, "geometry": { "type": "Point", "coordinates": [ 79.9571597, 7.5956055 ] } },
{ "type": "Feature", "properties": { "location/l": 7.3800883, "location_1": 80.036547, "title": "Pannala Pradeshiya Sabha Sub Office,Yakvila", "placeId": "ChIJL7_KA_Le4joR0VXQ3R3rYg8", "address": "92JP+2JM, Pannala-Kuliyapitiya Rd, Yakvila, Sri Lanka", "phone": null, "categoryNa": "Government office", "state": null, "city": "Yakvila", "additional": null, "addition_1": null, "addition_2": null, "addition_3": null, "addition_4": null, "addition_5": null, "addition_6": null, "addition_7": null, "addition_8": null, "addition_9": null, "addition10": null, "addition11": null, "addition12": null, "addition13": null }, "geometry": { "type": "Point", "coordinates": [ 80.036547, 7.3800883 ] } },
{ "type": "Feature", "properties": { "location/l": 7.3399276, "location_1": 80.2174329, "title": "Pradeshiya Sabha Sub Office", "placeId": "ChIJg_aWunEi4zoRC-aFZdgC4-o", "address": "86Q8+XXF, Sri Lanka", "phone": null, "categoryNa": "Government office", "state": null, "city": null, "additional": null, "addition_1": null, "addition_2": null, "addition_3": null, "addition_4": null, "addition_5": null, "addition_6": null, "addition_7": null, "addition_8": null, "addition_9": null, "addition10": null, "addition11": null, "addition12": null, "addition13": null }, "geometry": { "type": "Point", "coordinates": [ 80.2174329, 7.3399276 ] } },
{ "type": "Feature", "properties": { "location/l": 7.3359028, "location_1": 80.1284763, "title": "Pradeshiya Sabha Giriulla Sub Office", "placeId": "ChIJG9XmSSQg4zoRnl9TBKfa3AU", "address": "84PH+999, Giriulla, Sri Lanka", "phone": "+94 77 403 0630", "categoryNa": "City district office", "state": null, "city": "Giriulla", "additional": null, "addition_1": null, "addition_2": null, "addition_3": null, "addition_4": null, "addition_5": null, "addition_6": null, "addition_7": null, "addition_8": null, "addition_9": null, "addition10": null, "addition11": null, "addition12": null, "addition13": null }, "geometry": { "type": "Point", "coordinates": [ 80.1284763, 7.3359028 ] } },
{ "type": "Feature", "properties": { "location/l": 7.4326457, "location_1": 80.2132519, "title": "Narammala Pradeshiya Sabha | ප්‍රාදේශීය සභාව - නාරම්මල", "placeId": "ChIJs6BsLfIl4zoRA9hAAmseeJg", "address": "Narammala, Sri Lanka", "phone": "+94 372 249 275", "categoryNa": "Local government office", "state": null, "city": "Narammala", "additional": null, "addition_1": null, "addition_2": null, "addition_3": null, "addition_4": null, "addition_5": null, "addition_6": null, "addition_7": null, "addition_8": null, "addition_9": null, "addition10": null, "addition11": null, "addition12": null, "addition13": null }, "geometry": { "type": "Point", "coordinates": [ 80.2132519, 7.4326457 ] } },
{ "type": "Feature", "properties": { "location/l": 7.297087, "location_1": 80.2322185, "title": "Alawwa Urban Council", "placeId": "ChIJAQDA1VcY4zoRgRstSSqbKUg", "address": "76WJ+RVP, B9, Alawwa, Sri Lanka", "phone": null, "categoryNa": "Government", "state": null, "city": "Alawwa", "additional": null, "addition_1": null, "addition_2": null, "addition_3": null, "addition_4": null, "addition_5": null, "addition_6": null, "addition_7": null, "addition_8": null, "addition_9": null, "addition10": null, "addition11": null, "addition12": null, "addition13": null }, "geometry": { "type": "Point", "coordinates": [ 80.2322185, 7.297087 ] } },
{ "type": "Feature", "properties": { "location/l": 7.4865877, "location_1": 80.3632809, "title": "Urban Development Authority", "placeId": "ChIJ5-MNUx464zoRAf_LEYVv8ho", "address": "Urban Development Authority, 3a Mihindu Mawatha, Kurunegala, Sri Lanka", "phone": "+94 372 223 815", "categoryNa": "Government office", "state": null, "city": "Kurunegala", "additional": null, "addition_1": null, "addition_2": null, "addition_3": null, "addition_4": null, "addition_5": null, "addition_6": null, "addition_7": null, "addition_8": null, "addition_9": null, "addition10": null, "addition11": null, "addition12": null, "addition13": null }, "geometry": { "type": "Point", "coordinates": [ 80.3632809, 7.4865877 ] } },
{ "type": "Feature", "properties": { "location/l": 7.5060534, "location_1": 80.3434122, "title": "කුරුණෑගල ප්‍රාදේශීය සභාව", "placeId": "ChIJPegJjqMx4zoRPPTKRomM0-U", "address": "G84V+C9F, Aswedduma - Uda Digana Road, Kurunegala, Sri Lanka", "phone": null, "categoryNa": "Government office", "state": null, "city": "Kurunegala", "additional": null, "addition_1": null, "addition_2": null, "addition_3": null, "addition_4": null, "addition_5": null, "addition_6": null, "addition_7": null, "addition_8": null, "addition_9": null, "addition10": null, "addition11": null, "addition12": null, "addition13": null }, "geometry": { "type": "Point", "coordinates": [ 80.3434122, 7.5060534 ] } },
{ "type": "Feature", "properties": { "location/l": 7.3299948, "location_1": 80.300624, "title": "Polgahawela Pradeshiya Sabhawa", "placeId": "ChIJp_FpS94X4zoRBrCvZkAMWBY", "address": "88H2+X6X, Polgahawela, Sri Lanka", "phone": "+94 372 243 275", "categoryNa": "Government office", "state": null, "city": "Polgahawela", "additional": null, "addition_1": null, "addition_2": null, "addition_3": null, "addition_4": null, "addition_5": null, "addition_6": null, "addition_7": null, "addition_8": null, "addition_9": null, "addition10": null, "addition11": null, "addition12": null, "addition13": null }, "geometry": { "type": "Point", "coordinates": [ 80.300624, 7.3299948 ] } },
{ "type": "Feature", "properties": { "location/l": 7.4648195, "location_1": 80.0221387, "title": "Divisional Secretariat Kuliyapitiya West", "placeId": "ChIJGQeyj5rZ4joRkBOq7t2uBso", "address": "F27C+WVC, Kuliyapitiya, Sri Lanka", "phone": "+94 372 281 881", "categoryNa": "Government office", "state": null, "city": "Kuliyapitiya", "additional": null, "addition_1": null, "addition_2": null, "addition_3": null, "addition_4": null, "addition_5": null, "addition_6": null, "addition_7": null, "addition_8": null, "addition_9": null, "addition10": null, "addition11": null, "addition12": null, "addition13": null }, "geometry": { "type": "Point", "coordinates": [ 80.0221387, 7.4648195 ] } },
{ "type": "Feature", "properties": { "location/l": 7.505392, "location_1": 80.3795687, "title": "Kurunegala Pradeshiya Sabha - Wellawa sub office", "placeId": "ChIJ7UOdQvA54zoR2PqolGayKyY", "address": "120 Hiripitiya Rd, Sri Lanka", "phone": null, "categoryNa": "Government office", "state": null, "city": null, "additional": null, "addition_1": null, "addition_2": null, "addition_3": null, "addition_4": null, "addition_5": null, "addition_6": null, "addition_7": null, "addition_8": null, "addition_9": null, "addition10": null, "addition11": null, "addition12": null, "addition13": null }, "geometry": { "type": "Point", "coordinates": [ 80.3795687, 7.505392 ] } },
{ "type": "Feature", "properties": { "location/l": 7.4516043, "location_1": 80.393877, "title": "Kurunegala pradeshiya sabha sub office - Doratiyawa", "placeId": "ChIJNWTvvn054zoRRRj9d5fjCyM", "address": "F92V+JHR, Doratiyawa Rd, MANELOLUWA, Sri Lanka", "phone": null, "categoryNa": "Government office", "state": null, "city": "MANELOLUWA", "additional": null, "addition_1": null, "addition_2": null, "addition_3": null, "addition_4": null, "addition_5": null, "addition_6": null, "addition_7": null, "addition_8": null, "addition_9": null, "addition10": null, "addition11": null, "addition12": null, "addition13": null }, "geometry": { "type": "Point", "coordinates": [ 80.393877, 7.4516043 ] } },
{ "type": "Feature", "properties": { "location/l": 7.4857328, "location_1": 80.3534235, "title": "Department of Export Agriculture", "placeId": "ChIJXapzmBc64zoR7Wrig_nRnwI", "address": "10, Kurunegala 60000, Sri Lanka", "phone": "+94 372 222 160", "categoryNa": "City government office", "state": null, "city": "Kurunegala", "additional": null, "addition_1": null, "addition_2": null, "addition_3": null, "addition_4": null, "addition_5": null, "addition_6": null, "addition_7": null, "addition_8": null, "addition_9": null, "addition10": null, "addition11": null, "addition12": null, "addition13": null }, "geometry": { "type": "Point", "coordinates": [ 80.3534235, 7.4857328 ] } },
{ "type": "Feature", "properties": { "location/l": 7.2970601, "location_1": 80.2321217, "title": "Alawwa Pradeshiya Sabha", "placeId": "ChIJF8H26TwZ4zoRxAER1UiUJsA", "address": "76WJ+RRH, Alawwa, South, Sri Lanka", "phone": "+94 372 278 175", "categoryNa": "Government office", "state": null, "city": "South", "additional": null, "addition_1": null, "addition_2": null, "addition_3": null, "addition_4": null, "addition_5": null, "addition_6": null, "addition_7": null, "addition_8": null, "addition_9": null, "addition10": null, "addition11": null, "addition12": null, "addition13": null }, "geometry": { "type": "Point", "coordinates": [ 80.2321217, 7.2970601 ] } },
{ "type": "Feature", "properties": { "location/l": 7.4898736, "location_1": 80.3669959, "title": "District Secretariat Kurunegala", "placeId": "ChIJ_3eFDfY54zoRxBMf5qjfBpQ", "address": "F9Q8+XQ7, Wathhimi Rd, Kurunegala, Sri Lanka", "phone": "+94 372 222 238", "categoryNa": "Government office", "state": null, "city": "Kurunegala", "additional": "Monday", "addition_1": "8 AM–5 PM", "addition_2": "Tuesday", "addition_3": "8 AM–5 PM", "addition_4": "Wednesday", "addition_5": "8 AM–5 PM", "addition_6": "Thursday", "addition_7": "8 AM–5 PM", "addition_8": "Friday", "addition_9": "8 AM–5 PM", "addition10": "Saturday", "addition11": "Closed", "addition12": "Sunday", "addition13": "Closed" }, "geometry": { "type": "Point", "coordinates": [ 80.3669959, 7.4898736 ] } },
{ "type": "Feature", "properties": { "location/l": 7.4886345, "location_1": 80.367704, "title": "LUPPD Kurunegala", "placeId": "ChIJ7_IAHZo54zoRfF2E0XSPmVQ", "address": "Kurunegala Clock Tower, A6, Kurunegala 60000, Sri Lanka", "phone": "+94 372 223 597", "categoryNa": "Government office", "state": null, "city": "Kurunegala", "additional": null, "addition_1": null, "addition_2": null, "addition_3": null, "addition_4": null, "addition_5": null, "addition_6": null, "addition_7": null, "addition_8": null, "addition_9": null, "addition10": null, "addition11": null, "addition12": null, "addition13": null }, "geometry": { "type": "Point", "coordinates": [ 80.367704, 7.4886345 ] } },
{ "type": "Feature", "properties": { "location/l": 7.4691241, "location_1": 80.3238049, "title": "Wayamba Development Authority", "placeId": "ChIJ8Ubv7wA74zoRXGdoQwTqEgI", "address": "F89F+JGV, ManguruOya Watta, Nawa, Kurunegala, Sri Lanka", "phone": "+94 372 225 210", "categoryNa": "Government office", "state": null, "city": "Kurunegala", "additional": null, "addition_1": null, "addition_2": null, "addition_3": null, "addition_4": null, "addition_5": null, "addition_6": null, "addition_7": null, "addition_8": null, "addition_9": null, "addition10": null, "addition11": null, "addition12": null, "addition13": null }, "geometry": { "type": "Point", "coordinates": [ 80.3238049, 7.4691241 ] } },
{ "type": "Feature", "properties": { "location/l": 7.4936772, "location_1": 80.3677851, "title": "Provincial Environmental Authority (Northwestern Province)", "placeId": "ChIJnY_oIQ454zoRJVvAZa4BkYU", "address": "F9V9+F4F, Kurunegala, Sri Lanka", "phone": "+94 372 225 236", "categoryNa": "Government office", "state": null, "city": "Kurunegala", "additional": null, "addition_1": null, "addition_2": null, "addition_3": null, "addition_4": null, "addition_5": null, "addition_6": null, "addition_7": null, "addition_8": null, "addition_9": null, "addition10": null, "addition11": null, "addition12": null, "addition13": null }, "geometry": { "type": "Point", "coordinates": [ 80.3677851, 7.4936772 ] } },
{ "type": "Feature", "properties": { "location/l": 7.4309151, "location_1": 80.4458307, "title": "Mawathagama Pradheshiya Sabha", "placeId": "ChIJvdIOSR454zoRrCUio_wLgWo", "address": "CCJW+988, Mawathagama, Sri Lanka", "phone": "+94 372 299 821", "categoryNa": "Government office", "state": null, "city": "Mawathagama", "additional": null, "addition_1": null, "addition_2": null, "addition_3": null, "addition_4": null, "addition_5": null, "addition_6": null, "addition_7": null, "addition_8": null, "addition_9": null, "addition10": null, "addition11": null, "addition12": null, "addition13": null }, "geometry": { "type": "Point", "coordinates": [ 80.4458307, 7.4309151 ] } },
{ "type": "Feature", "properties": { "location/l": 7.5502858, "location_1": 80.4918288, "title": "Ridigama Pradeshiya Sabha", "placeId": "ChIJwYcYOlNI4zoRnNX9x4sKFFA", "address": "HF2R+4P8, Liniwehera Road, Ridigama, Sri Lanka", "phone": "+94 372 252 075", "categoryNa": "Government office", "state": null, "city": "Ridigama", "additional": null, "addition_1": null, "addition_2": null, "addition_3": null, "addition_4": null, "addition_5": null, "addition_6": null, "addition_7": null, "addition_8": null, "addition_9": null, "addition10": null, "addition11": null, "addition12": null, "addition13": null }, "geometry": { "type": "Point", "coordinates": [ 80.4918288, 7.5502858 ] } },
{ "type": "Feature", "properties": { "location/l": 7.5963256, "location_1": 80.4797723, "title": "Pradeshiya Sabha Sub Office Gokarella & Ayurveda Center", "placeId": "ChIJUyt9GSpL4zoR-S2BfjztCFs", "address": "HFWH+GWJ, Siyambalawehera, Sri Lanka", "phone": null, "categoryNa": "Government office", "state": null, "city": "Siyambalawehera", "additional": null, "addition_1": null, "addition_2": null, "addition_3": null, "addition_4": null, "addition_5": null, "addition_6": null, "addition_7": null, "addition_8": null, "addition_9": null, "addition10": null, "addition11": null, "addition12": null, "addition13": null }, "geometry": { "type": "Point", "coordinates": [ 80.4797723, 7.5963256 ] } },
{ "type": "Feature", "properties": { "location/l": 7.3613144, "location_1": 80.3063074, "title": "Pradeshiya Sabha Sub office", "placeId": "ChIJhYJwFBE94zoRzRvaxI3r8ds", "address": "Hathalispahuwa, A6, Divulkumbura, Sri Lanka", "phone": "+94 372 241 055", "categoryNa": "Local government office", "state": null, "city": "Divulkumbura", "additional": null, "addition_1": null, "addition_2": null, "addition_3": null, "addition_4": null, "addition_5": null, "addition_6": null, "addition_7": null, "addition_8": null, "addition_9": null, "addition10": null, "addition11": null, "addition12": null, "addition13": null }, "geometry": { "type": "Point", "coordinates": [ 80.3063074, 7.3613144 ] } },
{ "type": "Feature", "properties": { "location/l": 7.6556007, "location_1": 80.366248, "title": "ඉබ්බාගමුව ප්‍රාදේශීය සභා උප කාර්යාලය - හිරිපිටිය", "placeId": "ChIJ80b1UQA14zoR_GNAeExvz0I", "address": "M948+6FX, Sri Lanka", "phone": "+94 372 264 075", "categoryNa": "Government office", "state": null, "city": null, "additional": null, "addition_1": null, "addition_2": null, "addition_3": null, "addition_4": null, "addition_5": null, "addition_6": null, "addition_7": null, "addition_8": null, "addition_9": null, "addition10": null, "addition11": null, "addition12": null, "addition13": null }, "geometry": { "type": "Point", "coordinates": [ 80.366248, 7.6556007 ] } },
{ "type": "Feature", "properties": { "location/l": 7.6647801, "location_1": 80.1273895, "title": "Local Government Department - Kobeigane", "placeId": "ChIJQ0tCvs4q4zoRH7-AoDaA6Eg", "address": "M47G+WX6, Kobeigane, Sri Lanka", "phone": null, "categoryNa": "City government office", "state": null, "city": "Kobeigane", "additional": null, "addition_1": null, "addition_2": null, "addition_3": null, "addition_4": null, "addition_5": null, "addition_6": null, "addition_7": null, "addition_8": null, "addition_9": null, "addition10": null, "addition11": null, "addition12": null, "addition13": null }, "geometry": { "type": "Point", "coordinates": [ 80.1273895, 7.6647801 ] } },
{ "type": "Feature", "properties": { "location/l": 7.5550773, "location_1": 80.4569206, "title": "Divisional Secretariat Ibbagamuwa", "placeId": "ChIJkz8S2tVJ4zoRRPqMIFSrhOU", "address": "HF44+2QM, Ibbagamuwa, Sri Lanka", "phone": "+94 372 259 937", "categoryNa": "Government office", "state": null, "city": "Ibbagamuwa", "additional": null, "addition_1": null, "addition_2": null, "addition_3": null, "addition_4": null, "addition_5": null, "addition_6": null, "addition_7": null, "addition_8": null, "addition_9": null, "addition10": null, "addition11": null, "addition12": null, "addition13": null }, "geometry": { "type": "Point", "coordinates": [ 80.4569206, 7.5550773 ] } },
{ "type": "Feature", "properties": { "location/l": 7.4345296, "location_1": 80.4635874, "title": "Solid Waste Management Center - Mawathagama Pradeshiya Sabha", "placeId": "ChIJuRVdOABH4zoR6HSLnbKGND4", "address": "CFM7+QG, Mawathagama, Sri Lanka", "phone": "+94 372 299 821", "categoryNa": "Waste management service", "state": null, "city": "Mawathagama", "additional": null, "addition_1": null, "addition_2": null, "addition_3": null, "addition_4": null, "addition_5": null, "addition_6": null, "addition_7": null, "addition_8": null, "addition_9": null, "addition10": null, "addition11": null, "addition12": null, "addition13": null }, "geometry": { "type": "Point", "coordinates": [ 80.4635874, 7.4345296 ] } },
{ "type": "Feature", "properties": { "location/l": 7.5968939, "location_1": 79.9480493, "title": "Divisional Secretariat Bingiriya", "placeId": "ChIJs5Sb5TvS4joR3NCCNScKK7w", "address": "HWWX+Q63, Bingiriya, Sri Lanka", "phone": "+94 322 246 264", "categoryNa": "Government office", "state": null, "city": "Bingiriya", "additional": null, "addition_1": null, "addition_2": null, "addition_3": null, "addition_4": null, "addition_5": null, "addition_6": null, "addition_7": null, "addition_8": null, "addition_9": null, "addition10": null, "addition11": null, "addition12": null, "addition13": null }, "geometry": { "type": "Point", "coordinates": [ 79.9480493, 7.5968939 ] } },
{ "type": "Feature", "properties": { "location/l": 7.3269199, "location_1": 80.021855, "title": "ප්‍රාදේශීය ලේකම් කාර්‍යාලය - පන්නල Divisional Secretariat Office - Pannala", "placeId": "ChIJzctkYh3e4joRgKJdaXCSsF0", "address": "82GC+QP9, Pannala-Mallawagedara Rd, Pannala, Sri Lanka", "phone": "+94 372 246 038", "categoryNa": "Government office", "state": null, "city": "Pannala", "additional": null, "addition_1": null, "addition_2": null, "addition_3": null, "addition_4": null, "addition_5": null, "addition_6": null, "addition_7": null, "addition_8": null, "addition_9": null, "addition10": null, "addition11": null, "addition12": null, "addition13": null }, "geometry": { "type": "Point", "coordinates": [ 80.021855, 7.3269199 ] } },
{ "type": "Feature", "properties": { "location/l": 7.297611, "location_1": 79.8887895, "title": "Divisional Secretariat Dankotuwa දංකාෙටුව ප්‍රාදේශීය ලේකම් කාර්යාලය", "placeId": "ChIJ491TnUbo4joRJMsEZjbn0rM", "address": "7VXQ+2GV, Dankotuwa 61130, Sri Lanka", "phone": "+94 312 259 101", "categoryNa": "Government office", "state": null, "city": "Dankotuwa", "additional": null, "addition_1": null, "addition_2": null, "addition_3": null, "addition_4": null, "addition_5": null, "addition_6": null, "addition_7": null, "addition_8": null, "addition_9": null, "addition10": null, "addition11": null, "addition12": null, "addition13": null }, "geometry": { "type": "Point", "coordinates": [ 79.8887895, 7.297611 ] } },
{ "type": "Feature", "properties": { "location/l": 7.3476948, "location_1": 79.8923159, "title": "Wennapuwa local council sub office (v.c)", "placeId": "ChIJp4eqZibD4joRjH0uJ93I2cI", "address": "8VXR+3WG, Puttalam, Sri Lanka", "phone": "+94 312 256 544", "categoryNa": "Government office", "state": null, "city": "Puttalam", "additional": null, "addition_1": null, "addition_2": null, "addition_3": null, "addition_4": null, "addition_5": null, "addition_6": null, "addition_7": null, "addition_8": null, "addition_9": null, "addition10": null, "addition11": null, "addition12": null, "addition13": null }, "geometry": { "type": "Point", "coordinates": [ 79.8923159, 7.3476948 ] } },
{ "type": "Feature", "properties": { "location/l": 7.4857504, "location_1": 79.9666071, "title": "Divisional Secretariat", "placeId": "ChIJS44gNGPa4joRk4efdKz2nVc", "address": "FXP8+8J5, Kurunegala-Narammala-Madampe Rd, Udubaddawa, Sri Lanka", "phone": "+94 372 286 538", "categoryNa": "Government", "state": null, "city": "Udubaddawa", "additional": null, "addition_1": null, "addition_2": null, "addition_3": null, "addition_4": null, "addition_5": null, "addition_6": null, "addition_7": null, "addition_8": null, "addition_9": null, "addition10": null, "addition11": null, "addition12": null, "addition13": null }, "geometry": { "type": "Point", "coordinates": [ 79.9666071, 7.4857504 ] } },
{ "type": "Feature", "properties": { "location/l": 7.4171065, "location_1": 80.3281742, "title": "Phi Office", "placeId": "ChIJryvnEAE94zoRt3ovQMwhNJw", "address": "C88H+R7V Pradeshiya Sabha Sub Office, Colombo Road, Pothuhera, Sri Lanka", "phone": "+94 372 237 579", "categoryNa": "Corporate office", "state": null, "city": "Pothuhera", "additional": null, "addition_1": null, "addition_2": null, "addition_3": null, "addition_4": null, "addition_5": null, "addition_6": null, "addition_7": null, "addition_8": null, "addition_9": null, "addition10": null, "addition11": null, "addition12": null, "addition13": null }, "geometry": { "type": "Point", "coordinates": [ 80.3281742, 7.4171065 ] } }
]
}
