{
"type": "FeatureCollection",
"name": "Primary_Schools",
"crs": { "type": "name", "properties": { "name": "urn:ogc:def:crs:OGC:1.3:CRS84" } },
"features": [
{ "type": "Feature", "properties": { "location/lat": 8.0434783, "location/lng": 80.1547671, "city": "Gampola", "street": "25V3+9W", "title": "Wanniamunukole Primary School", "phone": null, "categoryName": "Primary school" }, "geometry": { "type": "Point", "coordinates": [ 80.1547671, 8.0434783 ] } },
{ "type": "Feature", "properties": { "location/lat": 7.7902115, "location/lng": 80.4035063, "city": "Alutwegedara", "street": "QCR3+3CJ", "title": "Galtemwewa School", "phone": null, "categoryName": "Primary school" }, "geometry": { "type": "Point", "coordinates": [ 80.4035063, 7.7902115 ] } },
{ "type": "Feature", "properties": { "location/lat": 7.8645763, "location/lng": 80.3612312, "city": "Batuyaya", "street": "V976+RF", "title": "Moragaswewa Junior school", "phone": null, "categoryName": "Elementary school" }, "geometry": { "type": "Point", "coordinates": [ 80.3612312, 7.8645763 ] } },
{ "type": "Feature", "properties": { "location/lat": 8.0124079, "location/lng": 79.845841, "city": "Puttalam", "street": "2R6W+X88, Sathamiya Puram, 4th Cross St", "title": "Al-Aqsha Primary School", "phone": null, "categoryName": "Primary school" }, "geometry": { "type": "Point", "coordinates": [ 79.845841, 8.0124079 ] } },
{ "type": "Feature", "properties": { "location/lat": 7.7693121, "location/lng": 80.4285596, "city": null, "street": "QC9H+PCF", "title": "Rawaela School", "phone": null, "categoryName": "Primary school" }, "geometry": { "type": "Point", "coordinates": [ 80.4285596, 7.7693121 ] } },
{ "type": "Feature", "properties": { "location/lat": 7.8193876, "location/lng": 80.2712046, "city": "Maho", "street": "R79C+QF4", "title": "Dammananda primary school", "phone": null, "categoryName": "Elementary school" }, "geometry": { "type": "Point", "coordinates": [ 80.2712046, 7.8193876 ] } },
{ "type": "Feature", "properties": { "location/lat": 7.7672076, "location/lng": 80.5153073, "city": "Polgahangoda", "street": "QG88+V4M", "title": "Imihaminnegama Primary School", "phone": "+94 77 357 4126", "categoryName": "Primary school" }, "geometry": { "type": "Point", "coordinates": [ 80.5153073, 7.7672076 ] } },
{ "type": "Feature", "properties": { "location/lat": 8.208585, "location/lng": 79.858159, "city": "Wanathavillu", "street": "13 1/2 Post", "title": "Pu/Bandaranayakapura Primary School, Wanatawilluwa", "phone": null, "categoryName": "Primary school" }, "geometry": { "type": "Point", "coordinates": [ 79.858159, 8.208585 ] } },
{ "type": "Feature", "properties": { "location/lat": 7.9946705, "location/lng": 80.1000695, "city": "පුත්තලම", "street": "X4V2+V28", "title": "Ana/Nawagattegama primary school", "phone": null, "categoryName": "Primary school" }, "geometry": { "type": "Point", "coordinates": [ 80.1000695, 7.9946705 ] } },
{ "type": "Feature", "properties": { "location/lat": 7.8307422, "location/lng": 80.304888, "city": null, "street": "R8J3+7XR", "title": "Yapahuwa Pre School", "phone": "+94 71 473 8585", "categoryName": "Kindergarten" }, "geometry": { "type": "Point", "coordinates": [ 80.304888, 7.8307422 ] } },
{ "type": "Feature", "properties": { "location/lat": 7.9831222, "location/lng": 80.3426489, "city": "Vikadenigama", "street": "X8MV+4P", "title": "Nithalawa Gnaneshwara Junior School", "phone": null, "categoryName": "Primary school" }, "geometry": { "type": "Point", "coordinates": [ 80.3426489, 7.9831222 ] } },
{ "type": "Feature", "properties": { "location/lat": 7.7255791, "location/lng": 80.4274437, "city": "Maeliya", "street": "PCGG+6XP, Rambe - Diddeniya Rd", "title": "Weheragala Primary School", "phone": "+94 77 730 9193", "categoryName": "Primary school" }, "geometry": { "type": "Point", "coordinates": [ 80.4274437, 7.7255791 ] } },
{ "type": "Feature", "properties": { "location/lat": 7.8851954, "location/lng": 80.4171334, "city": null, "street": "Nikawewa", "title": "Nikawewa Saliyakumara Model Primary School", "phone": null, "categoryName": "Elementary school" }, "geometry": { "type": "Point", "coordinates": [ 80.4171334, 7.8851954 ] } },
{ "type": "Feature", "properties": { "location/lat": 7.9273438, "location/lng": 80.2756877, "city": "Galgamuwa", "street": "W7GG+W7P", "title": "Ataragalla Primary School", "phone": null, "categoryName": "Primary school" }, "geometry": { "type": "Point", "coordinates": [ 80.2756877, 7.9273438 ] } },
{ "type": "Feature", "properties": { "location/lat": 7.9388808, "location/lng": 80.4546204, "city": null, "street": "WFQ3+HR5", "title": "Siyambalangamuwa Primary School", "phone": null, "categoryName": "Primary school" }, "geometry": { "type": "Point", "coordinates": [ 80.4546204, 7.9388808 ] } },
{ "type": "Feature", "properties": { "location/lat": 7.9288534, "location/lng": 79.9024779, "city": "Kiula", "street": "WWH2+GXX Kiula primary school", "title": "Kiula primary school", "phone": null, "categoryName": "Elementary school" }, "geometry": { "type": "Point", "coordinates": [ 79.9024779, 7.9288534 ] } },
{ "type": "Feature", "properties": { "location/lat": 7.9189098, "location/lng": 80.2385791, "city": "Galgamuwa", "street": "W69Q+HC8, B89", "title": "Primary School", "phone": null, "categoryName": "Primary school" }, "geometry": { "type": "Point", "coordinates": [ 80.2385791, 7.9189098 ] } },
{ "type": "Feature", "properties": { "location/lat": 7.76713, "location/lng": 80.2498891, "city": "Ambagaswewa", "street": "Q68X+VX2", "title": "Nika/Ambagaswewa Primary School", "phone": null, "categoryName": "Elementary school" }, "geometry": { "type": "Point", "coordinates": [ 80.2498891, 7.76713 ] } },
{ "type": "Feature", "properties": { "location/lat": 7.8799345, "location/lng": 80.2821321, "city": "Rolawa", "street": "V7HJ+XVC", "title": "Hitokadawala Primary School", "phone": null, "categoryName": "Primary school" }, "geometry": { "type": "Point", "coordinates": [ 80.2821321, 7.8799345 ] } },
{ "type": "Feature", "properties": { "location/lat": 7.902088, "location/lng": 80.0040306, "city": "Paramakanda", "street": "W223+RJJ", "title": "Paramakanda Primary School", "phone": null, "categoryName": "Primary school" }, "geometry": { "type": "Point", "coordinates": [ 80.0040306, 7.902088 ] } },
{ "type": "Feature", "properties": { "location/lat": 7.9356667, "location/lng": 80.3462534, "city": "Ehetuwewa", "street": "W8PW+7G6 Manakkulamayagama", "title": "Manakkulamayagama Primary School", "phone": null, "categoryName": "Primary school" }, "geometry": { "type": "Point", "coordinates": [ 80.3462534, 7.9356667 ] } },
{ "type": "Feature", "properties": { "location/lat": 8.0812056, "location/lng": 80.228123, "city": "Thambutta", "street": "36JH+J83, Mahagalkadawala - Warawewa", "title": "Tambutta Primary School", "phone": null, "categoryName": "Primary school" }, "geometry": { "type": "Point", "coordinates": [ 80.228123, 8.0812056 ] } },
{ "type": "Feature", "properties": { "location/lat": 7.8149048, "location/lng": 80.4242583, "city": "Bogolla", "street": "RC7F+XP6", "title": "Hakwatunaoya janapada Primary School", "phone": null, "categoryName": "Primary school" }, "geometry": { "type": "Point", "coordinates": [ 80.4242583, 7.8149048 ] } },
{ "type": "Feature", "properties": { "location/lat": 7.7487795, "location/lng": 80.4715866, "city": "Nikawehera", "street": "PFXC+GJ8", "title": "Sumaga Pre-School", "phone": null, "categoryName": "Kindergarten" }, "geometry": { "type": "Point", "coordinates": [ 80.4715866, 7.7487795 ] } },
{ "type": "Feature", "properties": { "location/lat": 8.0374814, "location/lng": 79.8275319, "city": "Puttalam", "street": "2RPH+X2V, B379", "title": "Zahira Primary School, Puttalam", "phone": "+94 77 297 2766", "categoryName": "Elementary school" }, "geometry": { "type": "Point", "coordinates": [ 79.8275319, 8.0374814 ] } },
{ "type": "Feature", "properties": { "location/lat": 8.1711357, "location/lng": 79.7276109, "city": "Musalpittiya", "street": "5PCG+7XM", "title": "AL-Hamra Nusery school", "phone": null, "categoryName": "Kindergarten" }, "geometry": { "type": "Point", "coordinates": [ 79.7276109, 8.1711357 ] } },
{ "type": "Feature", "properties": { "location/lat": 7.8393623, "location/lng": 79.7798979, "city": null, "street": "RQQH+PXR", "title": "Kattaikaduwa Sinhala School", "phone": null, "categoryName": "Elementary school" }, "geometry": { "type": "Point", "coordinates": [ 79.7798979, 7.8393623 ] } },
{ "type": "Feature", "properties": { "location/lat": 7.759312, "location/lng": 80.198402, "city": "Walpolagama", "street": "Q55X+P9", "title": "Ekamuthu pre school Diwullegoda", "phone": "+94 77 034 5274", "categoryName": "Kindergarten" }, "geometry": { "type": "Point", "coordinates": [ 80.198402, 7.759312 ] } },
{ "type": "Feature", "properties": { "location/lat": 7.8155924, "location/lng": 80.1149708, "city": "Kirinda", "street": "R487+6XQ", "title": "Kirinda Kanishta School", "phone": "+94 415 001 400", "categoryName": "Primary school" }, "geometry": { "type": "Point", "coordinates": [ 80.1149708, 7.8155924 ] } },
{ "type": "Feature", "properties": { "location/lat": 7.8682908, "location/lng": 79.911471, "city": "Mahakumbukkadawala", "street": "සෙම්බුකුලිය විහාරස්ථානය", "title": "Sembukuliya Primary School", "phone": null, "categoryName": "Primary school" }, "geometry": { "type": "Point", "coordinates": [ 79.911471, 7.8682908 ] } },
{ "type": "Feature", "properties": { "location/lat": 7.9527524, "location/lng": 80.0666597, "city": null, "street": "Galgamuwa Rd", "title": "Ana/Parakrama Primary School", "phone": null, "categoryName": "Primary school" }, "geometry": { "type": "Point", "coordinates": [ 80.0666597, 7.9527524 ] } },
{ "type": "Feature", "properties": { "location/lat": 7.9072802, "location/lng": 79.8374137, "city": null, "street": "Madurankuliya - Mahakumbukkadawala Rd", "title": "Paththayama Pre School", "phone": null, "categoryName": "Preschool" }, "geometry": { "type": "Point", "coordinates": [ 79.8374137, 7.9072802 ] } },
{ "type": "Feature", "properties": { "location/lat": 7.766624, "location/lng": 79.8425529, "city": "Akkaraweli", "street": "QR9R+4P", "title": "RAINBOW PRE SCHOOL", "phone": null, "categoryName": "Kindergarten" }, "geometry": { "type": "Point", "coordinates": [ 79.8425529, 7.766624 ] } },
{ "type": "Feature", "properties": { "location/lat": 7.9290102, "location/lng": 79.7885005, "city": "Madurankuli", "street": "WQHQ+JC2 Palasole", "title": "PU/Shantha Anthony's Primary School - Palasola", "phone": null, "categoryName": "Elementary school" }, "geometry": { "type": "Point", "coordinates": [ 79.7885005, 7.9290102 ] } },
{ "type": "Feature", "properties": { "location/lat": 7.7501425, "location/lng": 79.9943334, "city": "Wetiya", "street": "QX2V+7RR", "title": "AL IKRA PRE SCHOOL KADAYANDALUWA", "phone": null, "categoryName": "Kindergarten" }, "geometry": { "type": "Point", "coordinates": [ 79.9943334, 7.7501425 ] } },
{ "type": "Feature", "properties": { "location/lat": 7.8761986, "location/lng": 79.7942221, "city": "Madurankuli", "street": "VQGV+FMH, Unnamed Road", "title": "Pearl Pre-School", "phone": "+94 76 202 7474", "categoryName": "Kindergarten" }, "geometry": { "type": "Point", "coordinates": [ 79.7942221, 7.8761986 ] } },
{ "type": "Feature", "properties": { "location/lat": 8.0516141, "location/lng": 79.72678, "city": "Norochcholai", "street": "3P2G+JPR", "title": "Al Munawwar Pre School", "phone": null, "categoryName": "Preschool" }, "geometry": { "type": "Point", "coordinates": [ 79.72678, 8.0516141 ] } },
{ "type": "Feature", "properties": { "location/lat": 7.9540209, "location/lng": 79.7976315, "city": "Karamba", "street": "XQ3X+J32", "title": "Annooriya Pre-School", "phone": null, "categoryName": "Kindergarten" }, "geometry": { "type": "Point", "coordinates": [ 79.7976315, 7.9540209 ] } },
{ "type": "Feature", "properties": { "location/lat": 7.7450879, "location/lng": 80.1158398, "city": "Nikaweratiya", "street": "Maha Ela road", "title": "Zenith Pre-School", "phone": "+94 372 260 508", "categoryName": "Preschool" }, "geometry": { "type": "Point", "coordinates": [ 80.1158398, 7.7450879 ] } },
{ "type": "Feature", "properties": { "location/lat": 7.7949594, "location/lng": 79.7877325, "city": "Poonapitiya", "street": "QQVQ+X3Q", "title": "Primary School", "phone": null, "categoryName": "Primary school" }, "geometry": { "type": "Point", "coordinates": [ 79.7877325, 7.7949594 ] } },
{ "type": "Feature", "properties": { "location/lat": 7.8320537, "location/lng": 79.7838192, "city": "Panichchavillu", "street": "RQJM+RGG", "title": "Mother Mary Pre-school", "phone": "+94 77 907 6582", "categoryName": "Preschool" }, "geometry": { "type": "Point", "coordinates": [ 79.7838192, 7.8320537 ] } },
{ "type": "Feature", "properties": { "location/lat": 7.9322723, "location/lng": 80.093125, "city": "Miyallawa", "street": "W3JV+W65", "title": "Wattegedara Primary School", "phone": null, "categoryName": "Primary school" }, "geometry": { "type": "Point", "coordinates": [ 80.093125, 7.9322723 ] } },
{ "type": "Feature", "properties": { "location/lat": 8.0328764, "location/lng": 79.8338726, "city": "Puttalam", "street": "2RMM+5G5, Ashraf Memorial Park Lane, Poles Rd", "title": "Zainab Muslim Girl's Primary School", "phone": null, "categoryName": "Elementary school" }, "geometry": { "type": "Point", "coordinates": [ 79.8338726, 8.0328764 ] } },
{ "type": "Feature", "properties": { "location/lat": 8.0478565, "location/lng": 79.7351957, "city": "Norochcholai", "street": "2PXP+43W, Unnamed Road", "title": "Little Rose Pre-school", "phone": null, "categoryName": "Preschool" }, "geometry": { "type": "Point", "coordinates": [ 79.7351957, 8.0478565 ] } },
{ "type": "Feature", "properties": { "location/lat": 7.9119164, "location/lng": 79.8060325, "city": "Kadayamotte", "street": "WR64+QC7", "title": "Al Hasanath Pre School", "phone": null, "categoryName": "Kindergarten" }, "geometry": { "type": "Point", "coordinates": [ 79.8060325, 7.9119164 ] } },
{ "type": "Feature", "properties": { "location/lat": 7.7636045, "location/lng": 79.8436761, "city": "Tharakudivilluwa", "street": "QR7V+CFV", "title": "NEINAPURA PRE SCHOOL", "phone": null, "categoryName": "Kindergarten" }, "geometry": { "type": "Point", "coordinates": [ 79.8436761, 7.7636045 ] } },
{ "type": "Feature", "properties": { "location/lat": 7.9458442, "location/lng": 80.0587758, "city": "Miyallawa", "street": "W3W5+8G", "title": "Primary school", "phone": null, "categoryName": "Preschool" }, "geometry": { "type": "Point", "coordinates": [ 80.0587758, 7.9458442 ] } },
{ "type": "Feature", "properties": { "location/lat": 8.2130101, "location/lng": 79.7279374, "city": "Kalpitiya", "street": "6P7H+653", "title": "prabodha pre school .", "phone": null, "categoryName": "Kindergarten" }, "geometry": { "type": "Point", "coordinates": [ 79.7279374, 8.2130101 ] } },
{ "type": "Feature", "properties": { "location/lat": 8.2096898, "location/lng": 79.7289738, "city": "Kurinchanpitiya", "street": "6P5H+JF", "title": "Al Ashrafiya Arafa pre school", "phone": null, "categoryName": "Kindergarten" }, "geometry": { "type": "Point", "coordinates": [ 79.7289738, 8.2096898 ] } },
{ "type": "Feature", "properties": { "location/lat": 8.0417519, "location/lng": 79.8393775, "city": "Puttalam", "street": "2RRQ+PQ2", "title": "Sabnam Pre School", "phone": null, "categoryName": "Preschool" }, "geometry": { "type": "Point", "coordinates": [ 79.8393775, 8.0417519 ] } },
{ "type": "Feature", "properties": { "location/lat": 8.1020626, "location/lng": 79.7298658, "city": "Etalai", "street": "4P2H+RWH", "title": "Rahmania Pre-School", "phone": null, "categoryName": "Preschool" }, "geometry": { "type": "Point", "coordinates": [ 79.7298658, 8.1020626 ] } },
{ "type": "Feature", "properties": { "location/lat": 7.8708821, "location/lng": 79.7985416, "city": "Madurankuli", "street": "VQCX+884", "title": "Al-Iqra Pre School", "phone": null, "categoryName": "Kindergarten" }, "geometry": { "type": "Point", "coordinates": [ 79.7985416, 7.8708821 ] } },
{ "type": "Feature", "properties": { "location/lat": 7.9737091, "location/lng": 80.2069163, "city": "Galgamuwa", "street": "X6F4+FQM", "title": "Pre-school", "phone": null, "categoryName": "Preschool" }, "geometry": { "type": "Point", "coordinates": [ 80.2069163, 7.9737091 ] } },
{ "type": "Feature", "properties": { "location/lat": 7.4202238, "location/lng": 79.8332623, "city": "Marawila", "street": "Horagolla Rd", "title": "Ave Maria International School", "phone": "+94 77 756 0818", "categoryName": "Kindergarten" }, "geometry": { "type": "Point", "coordinates": [ 79.8332623, 7.4202238 ] } },
{ "type": "Feature", "properties": { "location/lat": 7.313827, "location/lng": 80.1585808, "city": "Giriulla", "street": "8575+GCP", "title": "Galdeniya Primary School", "phone": null, "categoryName": "Primary school" }, "geometry": { "type": "Point", "coordinates": [ 80.1585808, 7.313827 ] } },
{ "type": "Feature", "properties": { "location/lat": 7.3347001, "location/lng": 80.1448788, "city": "Giriulla", "street": "84MV+VXJ", "title": "Paranagama Primary School", "phone": null, "categoryName": "Primary school" }, "geometry": { "type": "Point", "coordinates": [ 80.1448788, 7.3347001 ] } },
{ "type": "Feature", "properties": { "location/lat": 7.6061274, "location/lng": 80.0798872, "city": null, "street": "J34H+FX2", "title": "Kuli/Hettipola Model Primary school", "phone": "+94 372 291 672", "categoryName": "Primary school" }, "geometry": { "type": "Point", "coordinates": [ 80.0798872, 7.6061274 ] } },
{ "type": "Feature", "properties": { "location/lat": 7.3600128, "location/lng": 79.990372, "city": "Daraluwa", "street": "9X6R+245, Eliwila - Yakwila Rd", "title": "Daraluwa Primary School", "phone": null, "categoryName": "Primary school" }, "geometry": { "type": "Point", "coordinates": [ 79.990372, 7.3600128 ] } },
{ "type": "Feature", "properties": { "location/lat": 7.4592191, "location/lng": 79.9135085, "city": null, "street": "Niramisiya-Wathugahamulla", "title": "Prabudda Pre School", "phone": null, "categoryName": "Preschool" }, "geometry": { "type": "Point", "coordinates": [ 79.9135085, 7.4592191 ] } },
{ "type": "Feature", "properties": { "location/lat": 7.6664898, "location/lng": 80.173789, "city": "Bamunugama", "street": "M58F+HGV", "title": "Nabadawewa School", "phone": null, "categoryName": "Elementary school" }, "geometry": { "type": "Point", "coordinates": [ 80.173789, 7.6664898 ] } },
{ "type": "Feature", "properties": { "location/lat": 7.4819074, "location/lng": 80.1901382, "city": null, "street": "Dehigama, B166,Kilimpola", "title": "Kilimpola Primary School - කිලිම්පොල ප්‍රාථමික විදුහල", "phone": null, "categoryName": "Primary school" }, "geometry": { "type": "Point", "coordinates": [ 80.1901382, 7.4819074 ] } },
{ "type": "Feature", "properties": { "location/lat": 7.3265625, "location/lng": 80.0313125, "city": "Pannala", "street": null, "title": "Zenith International Primary school", "phone": "+94 71 857 4405", "categoryName": "Elementary school" }, "geometry": { "type": "Point", "coordinates": [ 80.0313125, 7.3265625 ] } },
{ "type": "Feature", "properties": { "location/lat": 7.4516281, "location/lng": 80.0003071, "city": "Kuliyapitiya", "street": "F222+M43, Unnamed Road", "title": "Madakumburumulla school", "phone": null, "categoryName": "Elementary school" }, "geometry": { "type": "Point", "coordinates": [ 80.0003071, 7.4516281 ] } },
{ "type": "Feature", "properties": { "location/lat": 7.4963263, "location/lng": 79.8568076, "city": "Madampe", "street": "FVW4+GPM, Kurunegala-Narammala-Madampe Rd", "title": "Suduwella Primary School", "phone": null, "categoryName": "Primary school" }, "geometry": { "type": "Point", "coordinates": [ 79.8568076, 7.4963263 ] } },
{ "type": "Feature", "properties": { "location/lat": 7.3131789, "location/lng": 79.8602055, "city": null, "street": "8V76+73G, Boralessa church, Boralessa", "title": "Boralessa Primary School", "phone": "+94 312 265 831", "categoryName": "Elementary school" }, "geometry": { "type": "Point", "coordinates": [ 79.8602055, 7.3131789 ] } },
{ "type": "Feature", "properties": { "location/lat": 7.4345176, "location/lng": 80.1571311, "city": "Ranasgalla", "street": "C5M4+RV2 Nakkawatta", "title": "Ranasgalla Junior School", "phone": "+94 77 914 2108", "categoryName": "Primary school" }, "geometry": { "type": "Point", "coordinates": [ 80.1571311, 7.4345176 ] } },
{ "type": "Feature", "properties": { "location/lat": 7.3352155, "location/lng": 80.0604858, "city": "Maholawa", "street": "83P6+35Q", "title": "Kotuwella School", "phone": null, "categoryName": "Primary school" }, "geometry": { "type": "Point", "coordinates": [ 80.0604858, 7.3352155 ] } },
{ "type": "Feature", "properties": { "location/lat": 7.3537866, "location/lng": 80.0063444, "city": "Hunuvila", "street": null, "title": "Hunuwila Primary School", "phone": null, "categoryName": "Elementary school" }, "geometry": { "type": "Point", "coordinates": [ 80.0063444, 7.3537866 ] } },
{ "type": "Feature", "properties": { "location/lat": 7.4263895, "location/lng": 80.2139182, "city": "Narammala", "street": "C6G7+HH3, Negombo Rd", "title": "Narammala Primary School", "phone": null, "categoryName": "Primary school" }, "geometry": { "type": "Point", "coordinates": [ 80.2139182, 7.4263895 ] } },
{ "type": "Feature", "properties": { "location/lat": 7.3087641, "location/lng": 79.9067023, "city": "Dankotuwa", "street": "8W54+GM4", "title": "Mohottimulla Primary School", "phone": null, "categoryName": "Primary school" }, "geometry": { "type": "Point", "coordinates": [ 79.9067023, 7.3087641 ] } },
{ "type": "Feature", "properties": { "location/lat": 7.2936785, "location/lng": 79.9263535, "city": null, "street": "Negombo-Kurunegala Rd", "title": "Weekada Primary School", "phone": null, "categoryName": "Primary school" }, "geometry": { "type": "Point", "coordinates": [ 79.9263535, 7.2936785 ] } },
{ "type": "Feature", "properties": { "location/lat": 7.547951, "location/lng": 79.8509225, "city": null, "street": "GVX2+5C", "title": "Dematapitiya Primary School - Kakkapalliya", "phone": null, "categoryName": "Primary school" }, "geometry": { "type": "Point", "coordinates": [ 79.8509225, 7.547951 ] } },
{ "type": "Feature", "properties": { "location/lat": 7.4326303, "location/lng": 79.9560798, "city": null, "street": "Kutharippuwa, Welipennagahamulla", "title": "Kuli/Kutharippuwa Primary School", "phone": null, "categoryName": "Primary school" }, "geometry": { "type": "Point", "coordinates": [ 79.9560798, 7.4326303 ] } },
{ "type": "Feature", "properties": { "location/lat": 7.3058635, "location/lng": 79.846568, "city": "Nainamadama", "street": "8R4W+8JW, Thaldeka Road", "title": "St.Mary's Primary School", "phone": null, "categoryName": "Primary school" }, "geometry": { "type": "Point", "coordinates": [ 79.846568, 7.3058635 ] } },
{ "type": "Feature", "properties": { "location/lat": 7.4611347, "location/lng": 79.8440731, "city": "Madampe", "street": "FR6V+FJ4, Kudawewa", "title": "Kudawewa Buddhist School", "phone": null, "categoryName": "Primary school" }, "geometry": { "type": "Point", "coordinates": [ 79.8440731, 7.4611347 ] } },
{ "type": "Feature", "properties": { "location/lat": 7.5640409, "location/lng": 80.2132771, "city": "Katupotha", "street": "H677+J8", "title": "Primary school", "phone": null, "categoryName": "Elementary school" }, "geometry": { "type": "Point", "coordinates": [ 80.2132771, 7.5640409 ] } },
{ "type": "Feature", "properties": { "location/lat": 7.6569109, "location/lng": 80.1468391, "city": "Kobeigane", "street": "M44W+QP8", "title": "Samagigama Primary School", "phone": null, "categoryName": "Primary school" }, "geometry": { "type": "Point", "coordinates": [ 80.1468391, 7.6569109 ] } },
{ "type": "Feature", "properties": { "location/lat": 7.3611458, "location/lng": 80.0709958, "city": "Dodampoththa", "street": "936C+CC", "title": "Kadirapola Primary School", "phone": null, "categoryName": "Primary school" }, "geometry": { "type": "Point", "coordinates": [ 80.0709958, 7.3611458 ] } },
{ "type": "Feature", "properties": { "location/lat": 7.5113866, "location/lng": 80.0704449, "city": null, "street": "G36C+H54", "title": "Gomugomuwa Primary School", "phone": null, "categoryName": "Primary school" }, "geometry": { "type": "Point", "coordinates": [ 80.0704449, 7.5113866 ] } },
{ "type": "Feature", "properties": { "location/lat": 7.5421302, "location/lng": 79.8643398, "city": null, "street": "Kakkapalliya-Medagama Rd", "title": "Thambagalla Primary School", "phone": null, "categoryName": "Primary school" }, "geometry": { "type": "Point", "coordinates": [ 79.8643398, 7.5421302 ] } },
{ "type": "Feature", "properties": { "location/lat": 8.0177093, "location/lng": 79.8368049, "city": "Puttalam", "street": "2R9P+3PM", "title": "Liyasa preschool", "phone": "+94 77 585 7973", "categoryName": "Kindergarten" }, "geometry": { "type": "Point", "coordinates": [ 79.8368049, 8.0177093 ] } },
{ "type": "Feature", "properties": { "location/lat": 8.0387914, "location/lng": 79.8281395, "city": "Puttalam", "street": "252/1 Mannar Rd", "title": "Al Qalam institute", "phone": "+94 76 928 5205", "categoryName": "Elementary school" }, "geometry": { "type": "Point", "coordinates": [ 79.8281395, 8.0387914 ] } },
{ "type": "Feature", "properties": { "location/lat": 8.0391054, "location/lng": 79.8329285, "city": "Puttalam", "street": "40/12,1st lane, Spill Rd", "title": "Speed Easy Phonetic", "phone": null, "categoryName": "Preschool" }, "geometry": { "type": "Point", "coordinates": [ 79.8329285, 8.0391054 ] } },
{ "type": "Feature", "properties": { "location/lat": 7.4999191, "location/lng": 80.3531456, "city": "Kurunegala", "street": "F9X3+X76", "title": "Sakura Preschool", "phone": "+94 372 225 088", "categoryName": "Preschool" }, "geometry": { "type": "Point", "coordinates": [ 80.3531456, 7.4999191 ] } },
{ "type": "Feature", "properties": { "location/lat": 7.4872462, "location/lng": 80.3603145, "city": "Kurunegala", "street": "F9P6+V4W", "title": "මලියදේව විද්‍යාලීය ප්‍රාථමික අංශය", "phone": null, "categoryName": "Elementary school" }, "geometry": { "type": "Point", "coordinates": [ 80.3603145, 7.4872462 ] } }
]
}
