{
"type": "FeatureCollection",
"name": "schools",
"crs": { "type": "name", "properties": { "name": "urn:ogc:def:crs:OGC:1.3:CRS84" } },
"features": [
{ "type": "Feature", "properties": { "location/lat": 7.8263839, "location/lng": 80.2680133, "city": "Maho", "street": "Vijayaba Natinal College", "title": "Vijayaba National College Maho", "phone": "+94 372 275 214", "categoryName": "School" }, "geometry": { "type": "Point", "coordinates": [ 80.2680133, 7.8263839 ] } },
{ "type": "Feature", "properties": { "location/lat": 7.8161113, "location/lng": 80.4049807, "city": "Polpithigama", "street": null, "title": "Polpithigama National College", "phone": "+94 372 273 147", "categoryName": "School" }, "geometry": { "type": "Point", "coordinates": [ 80.4049807, 7.8161113 ] } },
{ "type": "Feature", "properties": { "location/lat": 7.9384625, "location/lng": 80.3447969, "city": "Ehetuwewa", "street": "W8QV+9WM", "title": "Bandaranayake Navodya School", "phone": "+94 372 253 522", "categoryName": "School" }, "geometry": { "type": "Point", "coordinates": [ 80.3447969, 7.9384625 ] } },
{ "type": "Feature", "properties": { "location/lat": 8.0334871, "location/lng": 80.4138306, "city": "Meegalewa", "street": "2CM7+9GW", "title": "Galpitiya School", "phone": null, "categoryName": "School" }, "geometry": { "type": "Point", "coordinates": [ 80.4138306, 8.0334871 ] } },
{ "type": "Feature", "properties": { "location/lat": 7.7853402, "location/lng": 80.3740159, "city": null, "street": "Q9PF+4JJ", "title": "Thalpathwewa Junior School", "phone": null, "categoryName": "School" }, "geometry": { "type": "Point", "coordinates": [ 80.3740159, 7.7853402 ] } },
{ "type": "Feature", "properties": { "location/lat": 8.0548062, "location/lng": 80.3517702, "city": "Meegalewa", "street": "Meegalewa Mahaweli National School, New town", "title": "Mahaweli National School Meegalewa", "phone": "+94 252 269 614", "categoryName": "School" }, "geometry": { "type": "Point", "coordinates": [ 80.3517702, 8.0548062 ] } },
{ "type": "Feature", "properties": { "location/lat": 7.7271316, "location/lng": 80.5178371, "city": "Polgahangoda", "street": "PGG9+V44, Madithiyagolla, Pansiyagama", "title": "Madithiyagolla School", "phone": null, "categoryName": "School" }, "geometry": { "type": "Point", "coordinates": [ 80.5178371, 7.7271316 ] } },
{ "type": "Feature", "properties": { "location/lat": 7.7615078, "location/lng": 79.9825919, "city": "පුත්තලම", "street": null, "title": "Kammandaluwa Bilingual School", "phone": "+94 71 205 2015", "categoryName": "School" }, "geometry": { "type": "Point", "coordinates": [ 79.9825919, 7.7615078 ] } },
{ "type": "Feature", "properties": { "location/lat": 7.8106463, "location/lng": 80.4020565, "city": "Polpithigama", "street": "RC62+7R3", "title": "Rajasinghe Primary School", "phone": "+94 375 762 660", "categoryName": "School" }, "geometry": { "type": "Point", "coordinates": [ 80.4020565, 7.8106463 ] } },
{ "type": "Feature", "properties": { "location/lat": 7.7544603, "location/lng": 80.0686544, "city": "Singandaluwa", "street": "Q339+QFJ", "title": "Heelogama National School", "phone": null, "categoryName": "School" }, "geometry": { "type": "Point", "coordinates": [ 80.0686544, 7.7544603 ] } },
{ "type": "Feature", "properties": { "location/lat": 8.0947361, "location/lng": 80.3226844, "city": "Meegalewa", "street": null, "title": "Bandaragama Primary School", "phone": null, "categoryName": "School" }, "geometry": { "type": "Point", "coordinates": [ 80.3226844, 8.0947361 ] } },
{ "type": "Feature", "properties": { "location/lat": 8.0042885, "location/lng": 80.2575709, "city": "Galgamuwa", "street": "2735+P28, Galgamuwa Rd", "title": "Wayamba President School", "phone": null, "categoryName": "School" }, "geometry": { "type": "Point", "coordinates": [ 80.2575709, 8.0042885 ] } },
{ "type": "Feature", "properties": { "location/lat": 8.0293363, "location/lng": 79.8424584, "city": "Puttalam", "street": "2RHR+PXP, Joseph Vaas Mawatha", "title": "ikra international school puttalam", "phone": "+94 322 267 176", "categoryName": "School" }, "geometry": { "type": "Point", "coordinates": [ 79.8424584, 8.0293363 ] } },
{ "type": "Feature", "properties": { "location/lat": 7.7831941, "location/lng": 80.2806995, "city": "Maho", "street": "Q7MJ+77G, Maho-Nagollagama Road", "title": "Thisnampalagama School", "phone": null, "categoryName": "School" }, "geometry": { "type": "Point", "coordinates": [ 80.2806995, 7.7831941 ] } },
{ "type": "Feature", "properties": { "location/lat": 8.0493731, "location/lng": 79.8606335, "city": "Puttalam", "street": "2VX6+P7R", "title": "Semmandaluwa Primarry School", "phone": null, "categoryName": "School" }, "geometry": { "type": "Point", "coordinates": [ 79.8606335, 8.0493731 ] } },
{ "type": "Feature", "properties": { "location/lat": 8.1372248, "location/lng": 80.1897438, "city": "Pasman Handiya", "street": "45PQ+VVQ", "title": "Saliya Ashoka Navodya School", "phone": null, "categoryName": "School" }, "geometry": { "type": "Point", "coordinates": [ 80.1897438, 8.1372248 ] } },
{ "type": "Feature", "properties": { "location/lat": 8.0077121, "location/lng": 80.1433593, "city": "Nawagattegama", "street": "245V+38Q", "title": "Maha Andarawewa Junior School", "phone": null, "categoryName": "School" }, "geometry": { "type": "Point", "coordinates": [ 80.1433593, 8.0077121 ] } },
{ "type": "Feature", "properties": { "location/lat": 8.0021736, "location/lng": 80.3852277, "city": null, "street": "292P+V39", "title": "Kudakathnoruwa School", "phone": null, "categoryName": "School" }, "geometry": { "type": "Point", "coordinates": [ 80.3852277, 8.0021736 ] } },
{ "type": "Feature", "properties": { "location/lat": 7.7185195, "location/lng": 79.9206855, "city": "පුත්තලම", "street": "PW9C+C73", "title": "Wendakaduwa Kanishta School", "phone": null, "categoryName": "School" }, "geometry": { "type": "Point", "coordinates": [ 79.9206855, 7.7185195 ] } },
{ "type": "Feature", "properties": { "location/lat": 7.7363706, "location/lng": 80.2434272, "city": "Ella", "street": "P6PV+G9V, A12", "title": "Gajanaggama lighthouse school", "phone": null, "categoryName": "School" }, "geometry": { "type": "Point", "coordinates": [ 80.2434272, 7.7363706 ] } },
{ "type": "Feature", "properties": { "location/lat": 8.1555025, "location/lng": 80.1442471, "city": "Perakumpura", "street": "544V+6M5", "title": "Perakumpura National School", "phone": "+94 373 870 144", "categoryName": "School" }, "geometry": { "type": "Point", "coordinates": [ 80.1442471, 8.1555025 ] } },
{ "type": "Feature", "properties": { "location/lat": 7.8393458, "location/lng": 80.0140833, "city": "Anamaduwa", "street": "R2Q7+PJP, Aththikulama- Rabawewa road, Anamaduwa", "title": "Aththikulama Junior School", "phone": null, "categoryName": "School" }, "geometry": { "type": "Point", "coordinates": [ 80.0140833, 7.8393458 ] } },
{ "type": "Feature", "properties": { "location/lat": 7.7548071, "location/lng": 80.4348356, "city": null, "street": "QC3M+WWG", "title": "Sri Vipassi Dhamma School ශ්‍රී විපස්සී දහම් පාසල", "phone": null, "categoryName": "School" }, "geometry": { "type": "Point", "coordinates": [ 80.4348356, 7.7548071 ] } },
{ "type": "Feature", "properties": { "location/lat": 7.798341, "location/lng": 79.861115, "city": "පුත්තලම", "street": "QVX6+8CQ", "title": "Baranankattuwa School", "phone": null, "categoryName": "School" }, "geometry": { "type": "Point", "coordinates": [ 79.861115, 7.798341 ] } },
{ "type": "Feature", "properties": { "location/lat": 7.7906387, "location/lng": 80.4321299, "city": "Thalakolawewa", "street": "QCRJ+7V2", "title": "Thalakolawewa School", "phone": null, "categoryName": "School" }, "geometry": { "type": "Point", "coordinates": [ 80.4321299, 7.7906387 ] } },
{ "type": "Feature", "properties": { "location/lat": 7.8831021, "location/lng": 79.9427938, "city": null, "street": "VWMV+64V", "title": "Siyambalagashena School", "phone": null, "categoryName": "School" }, "geometry": { "type": "Point", "coordinates": [ 79.9427938, 7.8831021 ] } },
{ "type": "Feature", "properties": { "location/lat": 8.0693241, "location/lng": 80.1928415, "city": "Pahala Giribawa", "street": "359V+P4G, Gampola", "title": "Gampola junior school", "phone": null, "categoryName": "School" }, "geometry": { "type": "Point", "coordinates": [ 80.1928415, 8.0693241 ] } },
{ "type": "Feature", "properties": { "location/lat": 7.7522307, "location/lng": 79.8519726, "city": "Wilpotha", "street": "QV22+VQX Tharawilluwa, Road", "title": "Vilpotha Bandaranayake School Tharawilluwa", "phone": null, "categoryName": "School" }, "geometry": { "type": "Point", "coordinates": [ 79.8519726, 7.7522307 ] } },
{ "type": "Feature", "properties": { "location/lat": 8.0061888, "location/lng": 80.288911, "city": "Galgamuwa", "street": "Near the 2nd KM Post, Ehetowewa Road", "title": "Discovery School Of International Education", "phone": "+94 373 612 000", "categoryName": "School" }, "geometry": { "type": "Point", "coordinates": [ 80.288911, 8.0061888 ] } },
{ "type": "Feature", "properties": { "location/lat": 8.0541637, "location/lng": 79.9499402, "city": "Karuwalagaswewa", "street": "3W3X+MX8", "title": "D.S.Senanayaka School", "phone": null, "categoryName": "School" }, "geometry": { "type": "Point", "coordinates": [ 79.9499402, 8.0541637 ] } },
{ "type": "Feature", "properties": { "location/lat": 7.8351087, "location/lng": 80.3802261, "city": null, "street": "R9PJ+23X", "title": "Hathigamuwa Primary School", "phone": null, "categoryName": "School" }, "geometry": { "type": "Point", "coordinates": [ 80.3802261, 7.8351087 ] } },
{ "type": "Feature", "properties": { "location/lat": 7.8716038, "location/lng": 80.2777738, "city": "Thumbullegama", "street": "V7CH+J4R", "title": "Thubullegama school", "phone": null, "categoryName": "School" }, "geometry": { "type": "Point", "coordinates": [ 80.2777738, 7.8716038 ] } },
{ "type": "Feature", "properties": { "location/lat": 7.9176781, "location/lng": 79.9350704, "city": null, "street": "Mahakumbukkadawala - Kottukachchiya Rd", "title": "Wadaththa Junior School", "phone": null, "categoryName": "School" }, "geometry": { "type": "Point", "coordinates": [ 79.9350704, 7.9176781 ] } },
{ "type": "Feature", "properties": { "location/lat": 7.9827194, "location/lng": 80.4102932, "city": "Meegalewa", "street": "Pothaneygama Primary School Kudakathnoruwa", "title": "pothanegama primary school", "phone": "+94 71 204 8031", "categoryName": "School" }, "geometry": { "type": "Point", "coordinates": [ 80.4102932, 7.9827194 ] } },
{ "type": "Feature", "properties": { "location/lat": 7.9843079, "location/lng": 80.2852498, "city": "Galgamuwa", "street": "X7MP+H6J", "title": "Ihala Konwewa Primary School", "phone": null, "categoryName": "School" }, "geometry": { "type": "Point", "coordinates": [ 80.2852498, 7.9843079 ] } },
{ "type": "Feature", "properties": { "location/lat": 8.2091804, "location/lng": 79.8595943, "city": "Wanathavillu", "street": "6V55+MRH", "title": "Bandaranayakapura school", "phone": null, "categoryName": "School" }, "geometry": { "type": "Point", "coordinates": [ 79.8595943, 8.2091804 ] } },
{ "type": "Feature", "properties": { "location/lat": 7.8915688, "location/lng": 80.0530155, "city": "පුත්තලම", "street": "V3R3+J6C", "title": "Kadaththawa Primary School", "phone": null, "categoryName": "School" }, "geometry": { "type": "Point", "coordinates": [ 80.0530155, 7.8915688 ] } },
{ "type": "Feature", "properties": { "location/lat": 8.0600961, "location/lng": 80.3565523, "city": "Meegalewa", "street": "314/1/62, Meegalewa Rd", "title": "Meegalewa Primary School", "phone": null, "categoryName": "School" }, "geometry": { "type": "Point", "coordinates": [ 80.3565523, 8.0600961 ] } },
{ "type": "Feature", "properties": { "location/lat": 7.7282199, "location/lng": 80.3786926, "city": null, "street": "Madagalla Rd", "title": "Kalugalla Primary School", "phone": null, "categoryName": "School" }, "geometry": { "type": "Point", "coordinates": [ 80.3786926, 7.7282199 ] } },
{ "type": "Feature", "properties": { "location/lat": 7.7420201, "location/lng": 80.4710693, "city": null, "street": "PFRC+RC4", "title": "Nikawehera primary school", "phone": null, "categoryName": "School" }, "geometry": { "type": "Point", "coordinates": [ 80.4710693, 7.7420201 ] } },
{ "type": "Feature", "properties": { "location/lat": 7.9193166, "location/lng": 80.2393371, "city": "Ambanpola", "street": "W69Q+PPG", "title": "Ambanpola Primary School", "phone": "+94 372 051 311", "categoryName": "School" }, "geometry": { "type": "Point", "coordinates": [ 80.2393371, 7.9193166 ] } },
{ "type": "Feature", "properties": { "location/lat": 8.0346502, "location/lng": 79.8789575, "city": "Puttalam", "street": "2VMH+VH8", "title": "Sirambiadiya Sinhala School", "phone": null, "categoryName": "School" }, "geometry": { "type": "Point", "coordinates": [ 79.8789575, 8.0346502 ] } },
{ "type": "Feature", "properties": { "location/lat": 7.9467664, "location/lng": 79.9798787, "city": "Kottukachchiya", "street": "WXWH+PX2, Swarnapaliyagama", "title": "Swarnapaliyagama School", "phone": null, "categoryName": "School" }, "geometry": { "type": "Point", "coordinates": [ 79.9798787, 7.9467664 ] } },
{ "type": "Feature", "properties": { "location/lat": 8.1058335, "location/lng": 79.8833446, "city": null, "street": "Monara wewa", "title": "Monara wewa government school", "phone": null, "categoryName": "School" }, "geometry": { "type": "Point", "coordinates": [ 79.8833446, 8.1058335 ] } },
{ "type": "Feature", "properties": { "location/lat": 7.9145954, "location/lng": 80.28901, "city": "Atharagalla", "street": "W77Q+RJJ", "title": "Atharagalla Primary School", "phone": null, "categoryName": "School" }, "geometry": { "type": "Point", "coordinates": [ 80.28901, 7.9145954 ] } },
{ "type": "Feature", "properties": { "location/lat": 7.8014068, "location/lng": 80.0844638, "city": "Nikaweratiya", "street": "R32M+HQ8", "title": "Sudeeragama Primary School", "phone": null, "categoryName": "School" }, "geometry": { "type": "Point", "coordinates": [ 80.0844638, 7.8014068 ] } },
{ "type": "Feature", "properties": { "location/lat": 7.7786134, "location/lng": 79.9519326, "city": "පුත්තලම", "street": "QXH2+CQV", "title": "Andigama Primary School", "phone": null, "categoryName": "School" }, "geometry": { "type": "Point", "coordinates": [ 79.9519326, 7.7786134 ] } },
{ "type": "Feature", "properties": { "location/lat": 7.907337, "location/lng": 79.869215, "city": "Welusumanapura", "street": "WV59+2XM Welusumanapura Kanishta Vidyalaya", "title": "Welasiya Government School", "phone": null, "categoryName": "School" }, "geometry": { "type": "Point", "coordinates": [ 79.869215, 7.907337 ] } },
{ "type": "Feature", "properties": { "location/lat": 8.2018729, "location/lng": 80.0801349, "city": null, "street": "632J+P3R", "title": "Neelabamma Primary School", "phone": null, "categoryName": "School" }, "geometry": { "type": "Point", "coordinates": [ 80.0801349, 8.2018729 ] } },
{ "type": "Feature", "properties": { "location/lat": 7.8510654, "location/lng": 80.0690366, "city": "Anamaduwa", "street": "V329+CJF", "title": "Mahamithawa School", "phone": null, "categoryName": "School" }, "geometry": { "type": "Point", "coordinates": [ 80.0690366, 7.8510654 ] } },
{ "type": "Feature", "properties": { "location/lat": 8.048404, "location/lng": 79.8434287, "city": "Puttalam", "street": null, "title": "Abdeen Government Muslim Mixed School", "phone": "+94 71 104 9598", "categoryName": "School" }, "geometry": { "type": "Point", "coordinates": [ 79.8434287, 8.048404 ] } },
{ "type": "Feature", "properties": { "location/lat": 7.8658717, "location/lng": 80.2630499, "city": null, "street": "V787+86V, Hithokadawala", "title": "Hithokadawala School", "phone": null, "categoryName": "School" }, "geometry": { "type": "Point", "coordinates": [ 80.2630499, 7.8658717 ] } },
{ "type": "Feature", "properties": { "location/lat": 7.7679305, "location/lng": 80.387967, "city": "Koruwawa", "street": "Q99Q+55G", "title": "Galketiygama junior school", "phone": null, "categoryName": "School" }, "geometry": { "type": "Point", "coordinates": [ 80.387967, 7.7679305 ] } },
{ "type": "Feature", "properties": { "location/lat": 7.8177146, "location/lng": 80.2527643, "city": null, "street": "R793+34J, Government Transport bus Station (CTB", "title": "Daladagama Primary School", "phone": null, "categoryName": "School" }, "geometry": { "type": "Point", "coordinates": [ 80.2527643, 7.8177146 ] } },
{ "type": "Feature", "properties": { "location/lat": 7.7591986, "location/lng": 79.8465881, "city": "පුත්තලම", "street": "QR5W+MJG", "title": "Tharakudiwilluwa Muslim School", "phone": "+94 77 316 0368", "categoryName": "School" }, "geometry": { "type": "Point", "coordinates": [ 79.8465881, 7.7591986 ] } },
{ "type": "Feature", "properties": { "location/lat": 7.7729254, "location/lng": 80.3676085, "city": "Galketiyagama", "street": "Q9F9+52H", "title": "Galketiyagama School", "phone": null, "categoryName": "School" }, "geometry": { "type": "Point", "coordinates": [ 80.3676085, 7.7729254 ] } },
{ "type": "Feature", "properties": { "location/lat": 8.0252089, "location/lng": 79.8385826, "city": "Puttalam", "street": "2RGQ+3CP", "title": "Science High School Puttalam(Sinhala Medium)", "phone": "+94 322 265 198", "categoryName": "School" }, "geometry": { "type": "Point", "coordinates": [ 79.8385826, 8.0252089 ] } },
{ "type": "Feature", "properties": { "location/lat": 8.0316975, "location/lng": 79.8335767, "city": "Puttalam", "street": "St.Andrew's Central College, 61300", "title": "St. Andrew's Central College Puttalam", "phone": "+94 322 265 568", "categoryName": "School" }, "geometry": { "type": "Point", "coordinates": [ 79.8335767, 8.0316975 ] } },
{ "type": "Feature", "properties": { "location/lat": 8.0321918, "location/lng": 79.8315163, "city": "Puttalam", "street": "25 Poles Rd", "title": "The Phoenix International School", "phone": "+94 77 791 6062", "categoryName": "School" }, "geometry": { "type": "Point", "coordinates": [ 79.8315163, 8.0321918 ] } },
{ "type": "Feature", "properties": { "location/lat": 7.92868, "location/lng": 79.8126387, "city": "Puttalam", "street": "WRH7+F3C", "title": "Al Baz International School", "phone": "+94 76 665 6113", "categoryName": "School" }, "geometry": { "type": "Point", "coordinates": [ 79.8126387, 7.92868 ] } },
{ "type": "Feature", "properties": { "location/lat": 8.0396421, "location/lng": 79.8286238, "city": "Puttalam", "street": "Mannar Rd", "title": "ZAHIRA COLLEGE (NATIONAL SCHOOL) - PUTTALAM", "phone": "+94 322 265 473", "categoryName": "School" }, "geometry": { "type": "Point", "coordinates": [ 79.8286238, 8.0396421 ] } },
{ "type": "Feature", "properties": { "location/lat": 8.0211091, "location/lng": 79.8382941, "city": "Puttalam", "street": "2RCQ+C8V", "title": "Ananda National School - Puttalam", "phone": "+94 322 266 291", "categoryName": "School" }, "geometry": { "type": "Point", "coordinates": [ 79.8382941, 8.0211091 ] } },
{ "type": "Feature", "properties": { "location/lat": 8.2310922, "location/lng": 79.7620404, "city": "Kalpitiya", "street": "Al Aqsa School Rd", "title": "Al Aqsa National School", "phone": "+94 322 260 777", "categoryName": "School" }, "geometry": { "type": "Point", "coordinates": [ 79.7620404, 8.2310922 ] } },
{ "type": "Feature", "properties": { "location/lat": 7.7601996, "location/lng": 80.0884542, "city": null, "street": "Q36Q+39G", "title": "Kebellewa Vidyalaya", "phone": null, "categoryName": "School" }, "geometry": { "type": "Point", "coordinates": [ 80.0884542, 7.7601996 ] } },
{ "type": "Feature", "properties": { "location/lat": 7.891411, "location/lng": 79.8016826, "city": "Madurankuli", "street": "VRR2+HM7, Madurankuliya - Mahakumbukkadawala Road", "title": "Kanamoolai Muslim Maha Vidyalayam", "phone": null, "categoryName": "School" }, "geometry": { "type": "Point", "coordinates": [ 79.8016826, 7.891411 ] } },
{ "type": "Feature", "properties": { "location/lat": 7.9649061, "location/lng": 79.8041081, "city": "Karampai", "street": "XR73+XJ9", "title": "Ulukapalam Muslim Maha Vidyalaya", "phone": "+94 322 062 998", "categoryName": "School" }, "geometry": { "type": "Point", "coordinates": [ 79.8041081, 7.9649061 ] } },
{ "type": "Feature", "properties": { "location/lat": 8.050195, "location/lng": 79.7360441, "city": "Norochcholai", "street": null, "title": "Nuraicholai Muslim Maha Vidyalaya (National School) நுரைச்சோலை முஸ்லிம் மஹா வித்தியாலயம்.", "phone": "+94 322 268 763", "categoryName": "School" }, "geometry": { "type": "Point", "coordinates": [ 79.7360441, 8.050195 ] } },
{ "type": "Feature", "properties": { "location/lat": 8.0341088, "location/lng": 79.8284975, "city": "Puttalam", "street": "85 3rd Cross St", "title": "Global College", "phone": "+94 71 622 8580", "categoryName": "School" }, "geometry": { "type": "Point", "coordinates": [ 79.8284975, 8.0341088 ] } },
{ "type": "Feature", "properties": { "location/lat": 8.0327223, "location/lng": 79.8330644, "city": "Puttalam", "street": "37 Poles Rd", "title": "Fathima girls high school", "phone": null, "categoryName": "School" }, "geometry": { "type": "Point", "coordinates": [ 79.8330644, 8.0327223 ] } },
{ "type": "Feature", "properties": { "location/lat": 7.7510996, "location/lng": 80.1175466, "city": "Nikaweratiya", "street": "Nikaweratiya-Moragollagama-Siyambangamuwa Rd", "title": "Mahasen National School මහසෙන් ජාතික පාසල", "phone": "+94 372 260 212", "categoryName": "School" }, "geometry": { "type": "Point", "coordinates": [ 80.1175466, 7.7510996 ] } },
{ "type": "Feature", "properties": { "location/lat": 8.0330386, "location/lng": 79.8343462, "city": "Puttalam", "street": "Land Mass", "title": "Zainab preschool", "phone": null, "categoryName": "School" }, "geometry": { "type": "Point", "coordinates": [ 79.8343462, 8.0330386 ] } },
{ "type": "Feature", "properties": { "location/lat": 7.9529093, "location/lng": 80.0633081, "city": null, "street": "Galgamuwa Rd", "title": "Sri Rathanapala National school", "phone": "+94 325 687 286", "categoryName": "School" }, "geometry": { "type": "Point", "coordinates": [ 80.0633081, 7.9529093 ] } },
{ "type": "Feature", "properties": { "location/lat": 8.1829777, "location/lng": 79.9183848, "city": "East", "street": "5WM9+59R", "title": "Morapathawa School", "phone": null, "categoryName": "School" }, "geometry": { "type": "Point", "coordinates": [ 79.9183848, 8.1829777 ] } },
{ "type": "Feature", "properties": { "location/lat": 7.9764826, "location/lng": 80.0613664, "city": "Miyallawa", "street": "X3G6+HGX", "title": "Kele wewe montissory school", "phone": null, "categoryName": "School" }, "geometry": { "type": "Point", "coordinates": [ 80.0613664, 7.9764826 ] } },
{ "type": "Feature", "properties": { "location/lat": 7.9087459, "location/lng": 79.8230686, "city": "Kalpitiya", "street": "6QF6+6X6", "title": "IYOOB G.M.M.SCHOOL", "phone": null, "categoryName": "School" }, "geometry": { "type": "Point", "coordinates": [ 79.8230686, 7.9087459 ] } },
{ "type": "Feature", "properties": { "location/lat": 7.9579913, "location/lng": 79.850524, "city": "Poththuwilluwa", "street": "XV52+56R, Nagavilluwa Uthtara Attavilluwa Rd", "title": "Pottuwilluwa school", "phone": null, "categoryName": "School" }, "geometry": { "type": "Point", "coordinates": [ 79.850524, 7.9579913 ] } },
{ "type": "Feature", "properties": { "location/lat": 8.0879521, "location/lng": 80.1761364, "city": "Pahala Giribawa", "street": "Ihala Maradankadawala, Srilanka", "title": "Maradankadawala Primary School", "phone": "+94 77 115 7586", "categoryName": "School" }, "geometry": { "type": "Point", "coordinates": [ 80.1761364, 8.0879521 ] } },
{ "type": "Feature", "properties": { "location/lat": 7.892298, "location/lng": 79.7586186, "city": null, "street": "VQR5+WC9", "title": "Kandathoduwawa School MV", "phone": null, "categoryName": "School" }, "geometry": { "type": "Point", "coordinates": [ 79.7586186, 7.892298 ] } },
{ "type": "Feature", "properties": { "location/lat": 7.9096088, "location/lng": 79.7895629, "city": null, "street": "WQ5Q+RRW", "title": "Kadayamottai Sinhala School", "phone": null, "categoryName": "School" }, "geometry": { "type": "Point", "coordinates": [ 79.7895629, 7.9096088 ] } },
{ "type": "Feature", "properties": { "location/lat": 8.2026846, "location/lng": 79.7371931, "city": null, "street": "Palavi-Kalpitiya Rd", "title": "Kurigngnampitiya Roman Catholic Sinhala School", "phone": null, "categoryName": "School" }, "geometry": { "type": "Point", "coordinates": [ 79.7371931, 8.2026846 ] } },
{ "type": "Feature", "properties": { "location/lat": 8.0691492, "location/lng": 79.9364028, "city": "Puttalam", "street": "3W9P+MH2", "title": "Thabbowa RC Primiary School", "phone": null, "categoryName": "School" }, "geometry": { "type": "Point", "coordinates": [ 79.9364028, 8.0691492 ] } },
{ "type": "Feature", "properties": { "location/lat": 7.8164919, "location/lng": 80.2089641, "city": "කුරුණෑගල", "street": "R685+HHW, Ipalogama, Maho,", "title": "Ipalogama Primary School", "phone": null, "categoryName": "School" }, "geometry": { "type": "Point", "coordinates": [ 80.2089641, 7.8164919 ] } },
{ "type": "Feature", "properties": { "location/lat": 8.1745295, "location/lng": 80.1172684, "city": "Perakumpura", "street": "54F8+RW6, Jayanthipura", "title": "Jayanthipura Junior School", "phone": "+94 71 942 9029", "categoryName": "School" }, "geometry": { "type": "Point", "coordinates": [ 80.1172684, 8.1745295 ] } },
{ "type": "Feature", "properties": { "location/lat": 8.1436994, "location/lng": 79.7301099, "city": null, "street": "4PVJ+F2H", "title": "Kandalkuda School", "phone": null, "categoryName": "School" }, "geometry": { "type": "Point", "coordinates": [ 79.7301099, 8.1436994 ] } },
{ "type": "Feature", "properties": { "location/lat": 8.0932726, "location/lng": 79.7229812, "city": "Etalai", "street": "3PVF+855", "title": "Etalai School", "phone": null, "categoryName": "School" }, "geometry": { "type": "Point", "coordinates": [ 79.7229812, 8.0932726 ] } },
{ "type": "Feature", "properties": { "location/lat": 8.0565297, "location/lng": 79.8952801, "city": "Puttalam", "street": "3V4W+J47", "title": "Pu/Manaweeriya Junior School", "phone": null, "categoryName": "School" }, "geometry": { "type": "Point", "coordinates": [ 79.8952801, 8.0565297 ] } },
{ "type": "Feature", "properties": { "location/lat": 7.8646779, "location/lng": 79.8734091, "city": "Mahakumbukkadawala", "street": "VV7F+V9F, Karukkumaduwa Sarathee Junior School", "title": "Karukkumaduwa School", "phone": null, "categoryName": "School" }, "geometry": { "type": "Point", "coordinates": [ 79.8734091, 7.8646779 ] } },
{ "type": "Feature", "properties": { "location/lat": 7.7609938, "location/lng": 79.7901114, "city": "Udappu", "street": "QQ6R+92X", "title": "Andimunai Tamil College", "phone": "+94 77 297 2754", "categoryName": "School" }, "geometry": { "type": "Point", "coordinates": [ 79.7901114, 7.7609938 ] } },
{ "type": "Feature", "properties": { "location/lat": 7.962245, "location/lng": 79.831663, "city": "Erukkalampiddy", "street": "XR6J+VMV", "title": "Nagavilluwa Muslim School", "phone": null, "categoryName": "School" }, "geometry": { "type": "Point", "coordinates": [ 79.831663, 7.962245 ] } },
{ "type": "Feature", "properties": { "location/lat": 7.8512525, "location/lng": 79.8219513, "city": "Puttalam", "street": "VR2C+GQ4, Puttalam Road", "title": "Mangala eliya primary school", "phone": null, "categoryName": "School" }, "geometry": { "type": "Point", "coordinates": [ 79.8219513, 7.8512525 ] } },
{ "type": "Feature", "properties": { "location/lat": 8.071215, "location/lng": 79.8388444, "city": "Puttalam", "street": "3RCQ+FGQ", "title": "Al Arafa Pre School", "phone": "+94 76 665 3444", "categoryName": "School" }, "geometry": { "type": "Point", "coordinates": [ 79.8388444, 8.071215 ] } },
{ "type": "Feature", "properties": { "location/lat": 8.1009705, "location/lng": 79.7282605, "city": "Etalai", "street": "4P2H+98J", "title": "Al-Madeena Primary School Thigali", "phone": null, "categoryName": "School" }, "geometry": { "type": "Point", "coordinates": [ 79.7282605, 8.1009705 ] } },
{ "type": "Feature", "properties": { "location/lat": 7.9977134, "location/lng": 79.8400387, "city": "Puttalam", "street": "XRXR+32M, 4th Cross St", "title": "Rathmalya Ahadhiyya School", "phone": "+94 71 232 4029", "categoryName": "School" }, "geometry": { "type": "Point", "coordinates": [ 79.8400387, 7.9977134 ] } },
{ "type": "Feature", "properties": { "location/lat": 7.8095238, "location/lng": 80.17967, "city": "Pinnapolegama", "street": "R55H+RV", "title": "NK/Ithewa primary school.ත්‍රෛභාෂා ප්‍රාථමික විද්‍යාලය ඉතෑව", "phone": null, "categoryName": "School" }, "geometry": { "type": "Point", "coordinates": [ 80.17967, 7.8095238 ] } },
{ "type": "Feature", "properties": { "location/lat": 8.1431816, "location/lng": 80.1609936, "city": "Perakumpura", "street": "45V6+79H, රාජාංගනය, සාලිය අශෝකපුර", "title": "K / Dharmashoka Primary School", "phone": null, "categoryName": "School" }, "geometry": { "type": "Point", "coordinates": [ 80.1609936, 8.1431816 ] } },
{ "type": "Feature", "properties": { "location/lat": 8.0937429, "location/lng": 79.9099833, "city": "Thabbowa", "street": "3WV5+FX", "title": "thewanuwara school", "phone": null, "categoryName": "School" }, "geometry": { "type": "Point", "coordinates": [ 79.9099833, 8.0937429 ] } },
{ "type": "Feature", "properties": { "location/lat": 7.8070595, "location/lng": 80.0411735, "city": null, "street": "R24R+RFF", "title": "Darul Hikma Pree School", "phone": "+94 72 933 9559", "categoryName": "School" }, "geometry": { "type": "Point", "coordinates": [ 80.0411735, 7.8070595 ] } },
{ "type": "Feature", "properties": { "location/lat": 8.0208849, "location/lng": 79.8352256, "city": "South", "street": "2RCP+935, Puttalam", "title": "School naandimitra Primary", "phone": "+94 77 422 2434", "categoryName": "School" }, "geometry": { "type": "Point", "coordinates": [ 79.8352256, 8.0208849 ] } },
{ "type": "Feature", "properties": { "location/lat": 8.0742391, "location/lng": 79.8359456, "city": "Puttalam", "street": "Mannar Rd, veppamadu", "title": "Kids Angel Pre School", "phone": "+94 77 332 4688", "categoryName": "School" }, "geometry": { "type": "Point", "coordinates": [ 79.8359456, 8.0742391 ] } },
{ "type": "Feature", "properties": { "location/lat": 8.0460511, "location/lng": 79.7220624, "city": "Ilanthadiya", "street": "2PWC+CRF", "title": "Ilanthiadiya school", "phone": null, "categoryName": "School" }, "geometry": { "type": "Point", "coordinates": [ 79.7220624, 8.0460511 ] } },
{ "type": "Feature", "properties": { "location/lat": 8.1179272, "location/lng": 80.1927372, "city": "Pahala Giribawa", "street": "459V+53H", "title": "Giriawa Nawodya School", "phone": null, "categoryName": "School" }, "geometry": { "type": "Point", "coordinates": [ 80.1927372, 8.1179272 ] } },
{ "type": "Feature", "properties": { "location/lat": 7.8523628, "location/lng": 79.7706375, "city": null, "street": "VQ2C+W7R", "title": "sinnapaduwa Kandalaya School", "phone": null, "categoryName": "School" }, "geometry": { "type": "Point", "coordinates": [ 79.7706375, 7.8523628 ] } },
{ "type": "Feature", "properties": { "location/lat": 8.1013984, "location/lng": 79.721073, "city": "Etalai", "street": "Kajuwatta Rd", "title": "Al-Aqsa Pre School", "phone": "+94 75 757 8008", "categoryName": "School" }, "geometry": { "type": "Point", "coordinates": [ 79.721073, 8.1013984 ] } },
{ "type": "Feature", "properties": { "location/lat": 7.7703705, "location/lng": 79.9464396, "city": null, "street": "B45", "title": "SAMADHI Pre-school and Child Development Centre", "phone": null, "categoryName": "School" }, "geometry": { "type": "Point", "coordinates": [ 79.9464396, 7.7703705 ] } },
{ "type": "Feature", "properties": { "location/lat": 7.9963818, "location/lng": 79.8415297, "city": "Puttalam", "street": "XRWR+HJ2", "title": "Muhammadiya Pre School", "phone": "+94 71 334 8889", "categoryName": "School" }, "geometry": { "type": "Point", "coordinates": [ 79.8415297, 7.9963818 ] } },
{ "type": "Feature", "properties": { "location/lat": 7.9921306, "location/lng": 79.8475898, "city": "Puttalam", "street": "XRRX+V24", "title": "Mullai Pre School", "phone": null, "categoryName": "School" }, "geometry": { "type": "Point", "coordinates": [ 79.8475898, 7.9921306 ] } },
{ "type": "Feature", "properties": { "location/lat": 8.2330647, "location/lng": 79.7353423, "city": "Kudawa", "street": "Kalpitiya lagoon road, kalpitiya lagoon road,kalpitiya lagoon", "title": "Kiteschule Kalpitiya Srilanka - Wing Foiling School - De Silva Beach Hut", "phone": "+94 77 704 7817", "categoryName": "School" }, "geometry": { "type": "Point", "coordinates": [ 79.7353423, 8.2330647 ] } },
{ "type": "Feature", "properties": { "location/lat": 7.3275489, "location/lng": 80.0259516, "city": "Pannala", "street": "82HG+298, Negombo-Kurunegala Rd", "title": "Pannala National School (පන්නල ජාතික පාසල)", "phone": "+94 372 246 088", "categoryName": "School" }, "geometry": { "type": "Point", "coordinates": [ 80.0259516, 7.3275489 ] } },
{ "type": "Feature", "properties": { "location/lat": 7.3469589, "location/lng": 79.8498231, "city": "Wennappuwa", "street": "8RWX+QWP, Wennappuwa-Kirimetiyana Rd", "title": "St.Martin De Pores School", "phone": null, "categoryName": "School" }, "geometry": { "type": "Point", "coordinates": [ 79.8498231, 7.3469589 ] } },
{ "type": "Feature", "properties": { "location/lat": 7.4725445, "location/lng": 80.0426383, "city": "Kuliyapitiya", "street": "13 Vijaya Mawatha", "title": "Princess international school", "phone": "+94 372 282 435", "categoryName": "School" }, "geometry": { "type": "Point", "coordinates": [ 80.0426383, 7.4725445 ] } },
{ "type": "Feature", "properties": { "location/lat": 7.3678703, "location/lng": 79.9645217, "city": null, "street": "Welpalla-Makandura Rd", "title": "Welpalla School", "phone": null, "categoryName": "School" }, "geometry": { "type": "Point", "coordinates": [ 79.9645217, 7.3678703 ] } },
{ "type": "Feature", "properties": { "location/lat": 7.494818, "location/lng": 79.8412095, "city": "Madampe", "street": "FRWR+36W", "title": "Shakya International School", "phone": "+94 77 658 7354", "categoryName": "School" }, "geometry": { "type": "Point", "coordinates": [ 79.8412095, 7.494818 ] } },
{ "type": "Feature", "properties": { "location/lat": 7.3250618, "location/lng": 79.8492809, "city": "Wennappuwa", "street": "8RGX+2PC, Dummaladeniya Buddhist Junior School", "title": "Dummaladeniya Buddhist Junior School", "phone": "+94 71 801 3176", "categoryName": "School" }, "geometry": { "type": "Point", "coordinates": [ 79.8492809, 7.3250618 ] } },
{ "type": "Feature", "properties": { "location/lat": 7.3904122, "location/lng": 79.8490935, "city": "Nattandiya", "street": "9RRX+5J8, Mawila Rd", "title": "Nath/Mawila Jayalath matha school", "phone": "+94 77 625 1462", "categoryName": "School" }, "geometry": { "type": "Point", "coordinates": [ 79.8490935, 7.3904122 ] } },
{ "type": "Feature", "properties": { "location/lat": 7.3223998, "location/lng": 79.9776239, "city": "Makandura", "street": "Eliwila Road", "title": "Kings International School", "phone": "+94 312 298 900", "categoryName": "School" }, "geometry": { "type": "Point", "coordinates": [ 79.9776239, 7.3223998 ] } },
{ "type": "Feature", "properties": { "location/lat": 7.4263173, "location/lng": 80.2137666, "city": "Narammala", "street": "Narammala Primary School, Negombo Rd", "title": "Mayurapada Kanishta Vidyalaya", "phone": "+94 372 249 382", "categoryName": "School" }, "geometry": { "type": "Point", "coordinates": [ 80.2137666, 7.4263173 ] } },
{ "type": "Feature", "properties": { "location/lat": 7.4921855, "location/lng": 80.1905534, "city": "Siyambalagaskotuwa", "street": "F5VR+446, B166", "title": "Madeena National School,Siyambalagaskotuwa", "phone": "+94 372 247 530", "categoryName": "School" }, "geometry": { "type": "Point", "coordinates": [ 80.1905534, 7.4921855 ] } },
{ "type": "Feature", "properties": { "location/lat": 7.6728909, "location/lng": 79.9864541, "city": "Kiniyama", "street": "MXFP+5H4, Weerapokuna", "title": "Makullapokuna Kanishta Vidyalaya", "phone": null, "categoryName": "School" }, "geometry": { "type": "Point", "coordinates": [ 79.9864541, 7.6728909 ] } },
{ "type": "Feature", "properties": { "location/lat": 7.3456478, "location/lng": 79.8318687, "city": "Wennappuwa", "street": "8RWJ+7P5", "title": "Ulhitiyawa Government School", "phone": null, "categoryName": "School" }, "geometry": { "type": "Point", "coordinates": [ 79.8318687, 7.3456478 ] } },
{ "type": "Feature", "properties": { "location/lat": 7.5037912, "location/lng": 79.9498702, "city": "Dummalasuriya", "street": "ahadiya town, yagamwela", "title": "Bright International School", "phone": null, "categoryName": "School" }, "geometry": { "type": "Point", "coordinates": [ 79.9498702, 7.5037912 ] } },
{ "type": "Feature", "properties": { "location/lat": 7.5041739, "location/lng": 80.1736669, "city": null, "street": "G53F+MF7", "title": "Kekunagolla Primary School", "phone": null, "categoryName": "School" }, "geometry": { "type": "Point", "coordinates": [ 80.1736669, 7.5041739 ] } },
{ "type": "Feature", "properties": { "location/lat": 7.371893, "location/lng": 80.1524022, "city": "Dambadeniya", "street": "95C2+QX2, main street", "title": "United International School", "phone": "+94 372 266 362", "categoryName": "School" }, "geometry": { "type": "Point", "coordinates": [ 80.1524022, 7.371893 ] } },
{ "type": "Feature", "properties": { "location/lat": 7.5256517, "location/lng": 79.9200277, "city": "පුත්තලම", "street": "GWGC+726", "title": "Wathuwaththa Sri Sobitha School", "phone": null, "categoryName": "School" }, "geometry": { "type": "Point", "coordinates": [ 79.9200277, 7.5256517 ] } },
{ "type": "Feature", "properties": { "location/lat": 7.2976256, "location/lng": 79.8975371, "city": "Dankotuwa", "street": "7VXX+323", "title": "Dankotuwa International Pre School", "phone": "+94 77 794 8918", "categoryName": "School" }, "geometry": { "type": "Point", "coordinates": [ 79.8975371, 7.2976256 ] } },
{ "type": "Feature", "properties": { "location/lat": 7.4928983, "location/lng": 79.8354166, "city": "Madampe", "street": "FRVP+553", "title": "Senananayake National School", "phone": "+94 322 247 628", "categoryName": "School" }, "geometry": { "type": "Point", "coordinates": [ 79.8354166, 7.4928983 ] } },
{ "type": "Feature", "properties": { "location/lat": 7.3914156, "location/lng": 79.8586235, "city": "Marawila", "street": "9VR5+HC9", "title": "Thummodara School", "phone": null, "categoryName": "School" }, "geometry": { "type": "Point", "coordinates": [ 79.8586235, 7.3914156 ] } },
{ "type": "Feature", "properties": { "location/lat": 7.564101, "location/lng": 80.2130136, "city": "Katupotha", "street": "H677+J6R, Ganthiriyawa, Bamunakotuwa.", "title": "Ganthiriyawa School", "phone": "+94 373 981 636", "categoryName": "School" }, "geometry": { "type": "Point", "coordinates": [ 80.2130136, 7.564101 ] } },
{ "type": "Feature", "properties": { "location/lat": 7.6283451, "location/lng": 79.8689371, "city": "Bangadeniya", "street": "JVH9+8HM, Dematapitiya", "title": "Dematapitiya School", "phone": null, "categoryName": "School" }, "geometry": { "type": "Point", "coordinates": [ 79.8689371, 7.6283451 ] } },
{ "type": "Feature", "properties": { "location/lat": 7.5400934, "location/lng": 80.0382221, "city": null, "street": "Elathalawa Rd", "title": "Elathalawa School", "phone": null, "categoryName": "School" }, "geometry": { "type": "Point", "coordinates": [ 80.0382221, 7.5400934 ] } },
{ "type": "Feature", "properties": { "location/lat": 7.6619194, "location/lng": 80.2003806, "city": "Padeniya", "street": "Bogoda Temple, Kobeigane-Padeniya Road", "title": "Bogoda Primary School", "phone": null, "categoryName": "School" }, "geometry": { "type": "Point", "coordinates": [ 80.2003806, 7.6619194 ] } },
{ "type": "Feature", "properties": { "location/lat": 7.5032964, "location/lng": 79.801219, "city": "Iranawila", "street": "GR32+8F9", "title": "St Peter's School", "phone": null, "categoryName": "School" }, "geometry": { "type": "Point", "coordinates": [ 79.801219, 7.5032964 ] } },
{ "type": "Feature", "properties": { "location/lat": 7.3646329, "location/lng": 79.832718, "city": "Katuneriya", "street": "St. Sebastian Primary School, Hiyu Fernando Road", "title": "St. Sebastian Primary School", "phone": null, "categoryName": "School" }, "geometry": { "type": "Point", "coordinates": [ 79.832718, 7.3646329 ] } },
{ "type": "Feature", "properties": { "location/lat": 7.5763876, "location/lng": 79.9156837, "city": "Bingiriya", "street": "HWG8+H73", "title": "Wellarawa School", "phone": null, "categoryName": "School" }, "geometry": { "type": "Point", "coordinates": [ 79.9156837, 7.5763876 ] } },
{ "type": "Feature", "properties": { "location/lat": 7.4354751, "location/lng": 79.8574117, "city": "Marawila", "street": "CVP4+5XV, Walahapitiya", "title": "Pahala Walahapitiya Dharmaraja School", "phone": "+94 77 946 4616", "categoryName": "School" }, "geometry": { "type": "Point", "coordinates": [ 79.8574117, 7.4354751 ] } },
{ "type": "Feature", "properties": { "location/lat": 7.4269577, "location/lng": 79.8470584, "city": "Marawila", "street": "CRGW+QRM", "title": "Maranda Wella Primary School", "phone": null, "categoryName": "School" }, "geometry": { "type": "Point", "coordinates": [ 79.8470584, 7.4269577 ] } },
{ "type": "Feature", "properties": { "location/lat": 7.3784259, "location/lng": 79.9754429, "city": null, "street": "9XHG+95G", "title": "Waguruwela School", "phone": null, "categoryName": "School" }, "geometry": { "type": "Point", "coordinates": [ 79.9754429, 7.3784259 ] } },
{ "type": "Feature", "properties": { "location/lat": 7.3260613, "location/lng": 80.0685357, "city": "Maholawa", "street": "83G9+29V, B308", "title": "Maholawa Junior School", "phone": null, "categoryName": "School" }, "geometry": { "type": "Point", "coordinates": [ 80.0685357, 7.3260613 ] } },
{ "type": "Feature", "properties": { "location/lat": 7.4591515, "location/lng": 79.9052858, "city": "පුත්තලම", "street": "FW54+M47", "title": "Yatakalana Dharmawijaya School", "phone": null, "categoryName": "School" }, "geometry": { "type": "Point", "coordinates": [ 79.9052858, 7.4591515 ] } },
{ "type": "Feature", "properties": { "location/lat": 7.4642809, "location/lng": 79.8200405, "city": "Mahawewa", "street": "FR7C+P27", "title": "Mattakotuwa School", "phone": null, "categoryName": "School" }, "geometry": { "type": "Point", "coordinates": [ 79.8200405, 7.4642809 ] } },
{ "type": "Feature", "properties": { "location/lat": 7.3343787, "location/lng": 79.8646463, "city": "Lunuwila", "street": "8VM7+QV2, Bolawatta Road", "title": "Bandirippuwa School", "phone": null, "categoryName": "School" }, "geometry": { "type": "Point", "coordinates": [ 79.8646463, 7.3343787 ] } },
{ "type": "Feature", "properties": { "location/lat": 7.4605708, "location/lng": 79.8358858, "city": null, "street": "FR6P+69C", "title": "BroadVision International School", "phone": "+94 76 962 8469", "categoryName": "School" }, "geometry": { "type": "Point", "coordinates": [ 79.8358858, 7.4605708 ] } },
{ "type": "Feature", "properties": { "location/lat": 7.5946493, "location/lng": 79.8989507, "city": "Wilaththawa", "street": "HVVX+VH4 Punchi, Chilaw - Wariyapola Rd", "title": "Punchi Wilaththawa Primary School", "phone": "+94 75 989 3575", "categoryName": "School" }, "geometry": { "type": "Point", "coordinates": [ 79.8989507, 7.5946493 ] } },
{ "type": "Feature", "properties": { "location/lat": 7.5666253, "location/lng": 79.8632633, "city": null, "street": "Karawitagara Wewa", "title": "Karawitagara School", "phone": "+94 323 323 402", "categoryName": "School" }, "geometry": { "type": "Point", "coordinates": [ 79.8632633, 7.5666253 ] } },
{ "type": "Feature", "properties": { "location/lat": 7.4990531, "location/lng": 79.9171654, "city": "Dummalasuriya", "street": "Shariputhra Vidhuhala", "title": "Shariputhra Primary School", "phone": "+94 322 241 488", "categoryName": "School" }, "geometry": { "type": "Point", "coordinates": [ 79.9171654, 7.4990531 ] } },
{ "type": "Feature", "properties": { "location/lat": 7.6356525, "location/lng": 79.8015027, "city": "Bangadeniya", "street": "JRP2+7J6", "title": "Karukkupone Tamil school", "phone": null, "categoryName": "School" }, "geometry": { "type": "Point", "coordinates": [ 79.8015027, 7.6356525 ] } },
{ "type": "Feature", "properties": { "location/lat": 7.3898837, "location/lng": 79.886764, "city": "Ihala Kottaramulla", "street": "9VQP+XP2, paluwalgala, Ekottramulla", "title": "Paluwalgala School", "phone": null, "categoryName": "School" }, "geometry": { "type": "Point", "coordinates": [ 79.886764, 7.3898837 ] } },
{ "type": "Feature", "properties": { "location/lat": 7.6282609, "location/lng": 79.824054, "city": "Bangadeniya", "street": "JRHF+7JW", "title": "Ch/ Bangadeniya National School", "phone": null, "categoryName": "School" }, "geometry": { "type": "Point", "coordinates": [ 79.824054, 7.6282609 ] } },
{ "type": "Feature", "properties": { "location/lat": 7.3751929, "location/lng": 80.1684799, "city": "Dambadeniya", "street": "Galgammulla Mummana Muthugala Road", "title": "Muthugala Junior School", "phone": "+94 71 127 6630", "categoryName": "School" }, "geometry": { "type": "Point", "coordinates": [ 80.1684799, 7.3751929 ] } },
{ "type": "Feature", "properties": { "location/lat": 7.279769, "location/lng": 79.8642846, "city": null, "street": "Thambarawila Rd", "title": "Thambarawila Junior School", "phone": "+94 312 277 635", "categoryName": "School" }, "geometry": { "type": "Point", "coordinates": [ 79.8642846, 7.279769 ] } },
{ "type": "Feature", "properties": { "location/lat": 8.2617448, "location/lng": 79.7477068, "city": "පුත්තලම", "street": "7P6X+M3W", "title": "Mohoththuwarama Sinhala School", "phone": null, "categoryName": "School" }, "geometry": { "type": "Point", "coordinates": [ 79.7477068, 8.2617448 ] } },
{ "type": "Feature", "properties": { "location/lat": 8.3613676, "location/lng": 79.7795119, "city": "Eluwankulama", "street": "9Q6H+GRR", "title": "Uchchamunai Roman Catholic Tamil College", "phone": null, "categoryName": "School" }, "geometry": { "type": "Point", "coordinates": [ 79.7795119, 8.3613676 ] } },
{ "type": "Feature", "properties": { "location/lat": 8.2604635, "location/lng": 79.8702124, "city": "Eluwankulama", "street": "7V5C+X59", "title": "Elawankulam muslim maha vidyalaya", "phone": null, "categoryName": "School" }, "geometry": { "type": "Point", "coordinates": [ 79.8702124, 8.2604635 ] } },
{ "type": "Feature", "properties": { "location/lat": 7.5746179, "location/lng": 79.8837363, "city": "පුත්තලම", "street": "HVFM+RFX", "title": "ATHUWANA SENANAYAKE PRIMARY SCHOOL.", "phone": null, "categoryName": "School" }, "geometry": { "type": "Point", "coordinates": [ 79.8837363, 7.5746179 ] } },
{ "type": "Feature", "properties": { "location/lat": 7.315871, "location/lng": 80.191657, "city": null, "street": "858R+8MV, Madawala, Keppitiwalana", "title": "Madawala Primary School", "phone": null, "categoryName": "School" }, "geometry": { "type": "Point", "coordinates": [ 80.191657, 7.315871 ] } },
{ "type": "Feature", "properties": { "location/lat": 7.5180108, "location/lng": 79.9687454, "city": null, "street": "GX99+6F5", "title": "Ethungahakotuwa Primary School", "phone": null, "categoryName": "School" }, "geometry": { "type": "Point", "coordinates": [ 79.9687454, 7.5180108 ] } },
{ "type": "Feature", "properties": { "location/lat": 7.3590102, "location/lng": 79.9917761, "city": "Daraluwa", "street": "9X5R+JP2, Eliwila - Yakwila Rd", "title": "Daraluwa School", "phone": null, "categoryName": "School" }, "geometry": { "type": "Point", "coordinates": [ 79.9917761, 7.3590102 ] } },
{ "type": "Feature", "properties": { "location/lat": 7.3226049, "location/lng": 79.9394289, "city": null, "street": "Rata Mada Paara", "title": "Buthgampola gov school", "phone": null, "categoryName": "School" }, "geometry": { "type": "Point", "coordinates": [ 79.9394289, 7.3226049 ] } },
{ "type": "Feature", "properties": { "location/lat": 7.638794, "location/lng": 80.0879505, "city": "Hettipola", "street": "J3QQ+G58", "title": "Kuli/Rebewa primary school", "phone": null, "categoryName": "School" }, "geometry": { "type": "Point", "coordinates": [ 80.0879505, 7.638794 ] } },
{ "type": "Feature", "properties": { "location/lat": 7.4868194, "location/lng": 80.0317419, "city": null, "street": "Mahasen Mawatha", "title": "Abawa school", "phone": null, "categoryName": "School" }, "geometry": { "type": "Point", "coordinates": [ 80.0317419, 7.4868194 ] } },
{ "type": "Feature", "properties": { "location/lat": 7.3835037, "location/lng": 79.8380887, "city": "Katuneriya", "street": "9RMQ+C64, Protas Thissera Road", "title": "School", "phone": null, "categoryName": "School" }, "geometry": { "type": "Point", "coordinates": [ 79.8380887, 7.3835037 ] } },
{ "type": "Feature", "properties": { "location/lat": 7.4406328, "location/lng": 80.2255509, "city": "Narammala", "street": "C6RG+763", "title": "Ganegoda Primary School Narammala", "phone": null, "categoryName": "School" }, "geometry": { "type": "Point", "coordinates": [ 80.2255509, 7.4406328 ] } },
{ "type": "Feature", "properties": { "location/lat": 7.4132897, "location/lng": 79.9125542, "city": null, "street": "B272", "title": "Dunkannawa Junior School", "phone": null, "categoryName": "School" }, "geometry": { "type": "Point", "coordinates": [ 79.9125542, 7.4132897 ] } },
{ "type": "Feature", "properties": { "location/lat": 7.5185067, "location/lng": 80.0149767, "city": null, "street": "G297+CX5", "title": "Galpola school", "phone": null, "categoryName": "School" }, "geometry": { "type": "Point", "coordinates": [ 80.0149767, 7.5185067 ] } },
{ "type": "Feature", "properties": { "location/lat": 7.4269004, "location/lng": 80.1094033, "city": "Kuliyapitiya", "street": "Labuyaya Wewagama Bihalpola Rd", "title": "katuwattewela primary school", "phone": "+94 71 127 6630", "categoryName": "School" }, "geometry": { "type": "Point", "coordinates": [ 80.1094033, 7.4269004 ] } },
{ "type": "Feature", "properties": { "location/lat": 7.4920051, "location/lng": 79.910903, "city": "Dummalasuriya", "street": "FWR6+R92, Kurunegala-Narammala-Madampe Rd", "title": "Bright International school", "phone": "+94 322 052 100", "categoryName": "School" }, "geometry": { "type": "Point", "coordinates": [ 79.910903, 7.4920051 ] } },
{ "type": "Feature", "properties": { "location/lat": 7.509378, "location/lng": 79.9791327, "city": "Ilukhena", "street": "GX5H+QM2, Unnamed Road", "title": "Kappangamuwa Primary School - Kappanga", "phone": null, "categoryName": "School" }, "geometry": { "type": "Point", "coordinates": [ 79.9791327, 7.509378 ] } },
{ "type": "Feature", "properties": { "location/lat": 7.4517598, "location/lng": 79.9727841, "city": "Kuliyapitiya", "street": "Thalgahapoththa,Udubaddawa", "title": "Thalgahapoththa School", "phone": null, "categoryName": "School" }, "geometry": { "type": "Point", "coordinates": [ 79.9727841, 7.4517598 ] } },
{ "type": "Feature", "properties": { "location/lat": 7.3363745, "location/lng": 79.9596792, "city": null, "street": "8XP5+GVV", "title": "Gonulla Primary School", "phone": null, "categoryName": "School" }, "geometry": { "type": "Point", "coordinates": [ 79.9596792, 7.3363745 ] } },
{ "type": "Feature", "properties": { "location/lat": 7.5116199, "location/lng": 79.8286121, "city": "Madampe", "street": "Puttalam - Colombo Rd", "title": "Beppu Japanese Language School", "phone": "+94 322 051 770", "categoryName": "School" }, "geometry": { "type": "Point", "coordinates": [ 79.8286121, 7.5116199 ] } },
{ "type": "Feature", "properties": { "location/lat": 7.4254352, "location/lng": 80.2264858, "city": "Narammala", "street": "C6GG+5HH, senanayaka janapadaya narammala", "title": "Ranawatta Primary School", "phone": null, "categoryName": "School" }, "geometry": { "type": "Point", "coordinates": [ 80.2264858, 7.4254352 ] } },
{ "type": "Feature", "properties": { "location/lat": 7.4590817, "location/lng": 80.3649468, "city": "Kurunegala", "street": "F957+JXP", "title": "Adventure Park Of Lyceum International School", "phone": "+94 76 148 3356", "categoryName": "School" }, "geometry": { "type": "Point", "coordinates": [ 80.3649468, 7.4590817 ] } },
{ "type": "Feature", "properties": { "location/lat": 7.4775924, "location/lng": 80.3675206, "city": "Kurunegala", "street": "71 Udawalpola Road", "title": "Lyceum International School", "phone": "+94 372 056 855", "categoryName": "School" }, "geometry": { "type": "Point", "coordinates": [ 80.3675206, 7.4775924 ] } },
{ "type": "Feature", "properties": { "location/lat": 7.4730199, "location/lng": 80.3521854, "city": "Kurunegala", "street": "F9F2+6V3, 3 වන පටුමග", "title": "Waymba International School", "phone": "+94 372 225 250", "categoryName": "School" }, "geometry": { "type": "Point", "coordinates": [ 80.3521854, 7.4730199 ] } },
{ "type": "Feature", "properties": { "location/lat": 7.485103, "location/lng": 80.3669388, "city": "Kurunegala", "street": "F9P8+2QW", "title": "Royal International School - Pre primary", "phone": "+94 77 072 3588", "categoryName": "School" }, "geometry": { "type": "Point", "coordinates": [ 80.3669388, 7.485103 ] } },
{ "type": "Feature", "properties": { "location/lat": 7.475189, "location/lng": 80.3791198, "city": "Kurunegala", "street": "47 Bauddhaloka Mawatha", "title": "Royal International School - Primary", "phone": "+94 372 231 457", "categoryName": "School" }, "geometry": { "type": "Point", "coordinates": [ 80.3791198, 7.475189 ] } },
{ "type": "Feature", "properties": { "location/lat": 7.2869167, "location/lng": 80.1822715, "city": null, "street": "75PJ+QW6", "title": "wawala primary school", "phone": null, "categoryName": "School" }, "geometry": { "type": "Point", "coordinates": [ 80.1822715, 7.2869167 ] } },
{ "type": "Feature", "properties": { "location/lat": 7.3356094, "location/lng": 80.0303863, "city": "Pannala", "street": "82PJ+65R, Pannala-Kuliyapitiya Rd", "title": "Pannala National school", "phone": null, "categoryName": "School" }, "geometry": { "type": "Point", "coordinates": [ 80.0303863, 7.3356094 ] } },
{ "type": "Feature", "properties": { "location/lat": 7.3961899, "location/lng": 79.8289726, "city": "Marawila", "street": "9RWH+FHH", "title": "Sumana Damma School", "phone": null, "categoryName": "School" }, "geometry": { "type": "Point", "coordinates": [ 79.8289726, 7.3961899 ] } },
{ "type": "Feature", "properties": { "location/lat": 7.6716411, "location/lng": 80.2126389, "city": null, "street": "M6C7+M32", "title": "Herathgama School", "phone": null, "categoryName": "School" }, "geometry": { "type": "Point", "coordinates": [ 80.2126389, 7.6716411 ] } },
{ "type": "Feature", "properties": { "location/lat": 7.686041, "location/lng": 80.1403807, "city": "Pannawa Town", "street": "M4PR+C56, Pubbiliya Road", "title": "Pubbiliya school", "phone": null, "categoryName": "School" }, "geometry": { "type": "Point", "coordinates": [ 80.1403807, 7.686041 ] } },
{ "type": "Feature", "properties": { "location/lat": 7.445525, "location/lng": 80.0687144, "city": null, "street": "Inguruwatta", "title": "IGURUWATHTHA PRIMARY SCHOOL, PAHALADIYADORA", "phone": null, "categoryName": "School" }, "geometry": { "type": "Point", "coordinates": [ 80.0687144, 7.445525 ] } },
{ "type": "Feature", "properties": { "location/lat": 7.3980858, "location/lng": 79.9773943, "city": "wadumunnegedara", "street": "Kandanegedara Regional Hospital", "title": "Wadumunnegedara Primary School", "phone": null, "categoryName": "School" }, "geometry": { "type": "Point", "coordinates": [ 79.9773943, 7.3980858 ] } },
{ "type": "Feature", "properties": { "location/lat": 7.5160127, "location/lng": 79.8555851, "city": null, "street": "Uraliyagara-Panirendawa-Villattewa Rd", "title": "Sembukattiya Government School", "phone": null, "categoryName": "School" }, "geometry": { "type": "Point", "coordinates": [ 79.8555851, 7.5160127 ] } },
{ "type": "Feature", "properties": { "location/lat": 7.3558782, "location/lng": 79.8726524, "city": "Lunuwila", "street": "9V4F+932", "title": "Isuru driving school lunuwila", "phone": "+94 77 756 5661", "categoryName": "School" }, "geometry": { "type": "Point", "coordinates": [ 79.8726524, 7.3558782 ] } },
{ "type": "Feature", "properties": { "location/lat": 8.0304962, "location/lng": 79.8334052, "city": "Puttalam", "street": "St. John Paull II. English Medium College, Anuradhapura Road", "title": "St. John Paul II English Medium college. Puttalam", "phone": "+94 322 266 517", "categoryName": "School" }, "geometry": { "type": "Point", "coordinates": [ 79.8334052, 8.0304962 ] } },
{ "type": "Feature", "properties": { "location/lat": 8.0336026, "location/lng": 79.8322853, "city": "Puttalam", "street": "22A Poles Rd", "title": "Royal Academy of Science", "phone": "+94 77 226 1155", "categoryName": "School" }, "geometry": { "type": "Point", "coordinates": [ 79.8322853, 8.0336026 ] } },
{ "type": "Feature", "properties": { "location/lat": 8.0331456, "location/lng": 79.8321305, "city": "Puttalam", "street": "37 Poles Rd", "title": "FATHIMA MUSLIM LADIES COLLEGE - PUTTALAM", "phone": null, "categoryName": "School" }, "geometry": { "type": "Point", "coordinates": [ 79.8321305, 8.0331456 ] } },
{ "type": "Feature", "properties": { "location/lat": 8.010058, "location/lng": 79.8381611, "city": "Puttalam", "street": "2R6Q+27F", "title": "Annai montessori centre", "phone": null, "categoryName": "School" }, "geometry": { "type": "Point", "coordinates": [ 79.8381611, 8.010058 ] } },
{ "type": "Feature", "properties": { "location/lat": 8.0307332, "location/lng": 79.8321766, "city": "Puttalam", "street": "2RJJ+7VV", "title": "St. Andrew's Primary School", "phone": "+94 322 267 450", "categoryName": "School" }, "geometry": { "type": "Point", "coordinates": [ 79.8321766, 8.0307332 ] } },
{ "type": "Feature", "properties": { "location/lat": 8.035894, "location/lng": 79.8320887, "city": "Puttalam", "street": "2RPJ+9R4", "title": "PUTTALAM SCIENCE ACADEMY", "phone": null, "categoryName": "School" }, "geometry": { "type": "Point", "coordinates": [ 79.8320887, 8.035894 ] } },
{ "type": "Feature", "properties": { "location/lat": 8.0280822, "location/lng": 79.8406076, "city": "Puttalam", "street": "2RHR+66Q, Katugastota-Kurunegala-Puttalam Hwy", "title": "Puttalam Hindu Central College புத்தளம் இந்து மத்திய கல்லூரி", "phone": "+94 322 266 245", "categoryName": "School" }, "geometry": { "type": "Point", "coordinates": [ 79.8406076, 8.0280822 ] } },
{ "type": "Feature", "properties": { "location/lat": 8.0320019, "location/lng": 79.844621, "city": "Puttalam", "street": "St. Mary's Tamil School, Anuradapura Rd", "title": "St.Mary's Tamil Maha Vidyalaya Puttalam", "phone": "+94 324 921 063", "categoryName": "School" }, "geometry": { "type": "Point", "coordinates": [ 79.844621, 8.0320019 ] } },
{ "type": "Feature", "properties": { "location/lat": 8.0044131, "location/lng": 79.844478, "city": "Puttalam", "street": "2R3V+QQ9", "title": "Ansari Muslim Maha Vidyalayam", "phone": null, "categoryName": "School" }, "geometry": { "type": "Point", "coordinates": [ 79.844478, 8.0044131 ] } },
{ "type": "Feature", "properties": { "location/lat": 8.0365936, "location/lng": 79.8340476, "city": "Puttalam", "street": null, "title": "Kec Puttalam", "phone": "+94 70 297 7234", "categoryName": "School" }, "geometry": { "type": "Point", "coordinates": [ 79.8340476, 8.0365936 ] } },
{ "type": "Feature", "properties": { "location/lat": 8.0429447, "location/lng": 79.8235163, "city": "Puttalam", "street": "2RVF+5CC", "title": "Assenkudhoos Government Muslim Vidyalayam, Puttalam", "phone": "+94 325 617 879", "categoryName": "School" }, "geometry": { "type": "Point", "coordinates": [ 79.8235163, 8.0429447 ] } },
{ "type": "Feature", "properties": { "location/lat": 8.0475656, "location/lng": 79.8163633, "city": "Puttalam", "street": "2RX8+2GH", "title": "Sharjahpuram Model Preschool", "phone": "+94 77 760 0943", "categoryName": "School" }, "geometry": { "type": "Point", "coordinates": [ 79.8163633, 8.0475656 ] } },
{ "type": "Feature", "properties": { "location/lat": 8.0415031, "location/lng": 79.844281, "city": "Puttalam", "street": "2RRV+JP2", "title": "P/Manalkundru Muslim Maha Vidyalaya", "phone": "+94 322 265 188", "categoryName": "School" }, "geometry": { "type": "Point", "coordinates": [ 79.844281, 8.0415031 ] } },
{ "type": "Feature", "properties": { "location/lat": 8.03219, "location/lng": 79.853249, "city": "Puttalam", "street": "2VJ3+V7H, A12", "title": "යුද හමුදා පුහුණු කදවුර", "phone": null, "categoryName": "School" }, "geometry": { "type": "Point", "coordinates": [ 79.853249, 8.03219 ] } },
{ "type": "Feature", "properties": { "location/lat": 8.0111075, "location/lng": 79.8454765, "city": "Puttalam", "street": "2R6W+C5X, 7Th Cross St", "title": "Al Madrasathul Quraaniyyathul Falahiyya المدرسة القرآنية الفلاحية", "phone": "+94 71 861 8749", "categoryName": "School" }, "geometry": { "type": "Point", "coordinates": [ 79.8454765, 8.0111075 ] } },
{ "type": "Feature", "properties": { "location/lat": 8.0448451, "location/lng": 79.8285551, "city": "Puttalam", "street": "2RVH+WCM, Mannar Rd", "title": "Puttalam Center for Technical Training", "phone": null, "categoryName": "School" }, "geometry": { "type": "Point", "coordinates": [ 79.8285551, 8.0448451 ] } },
{ "type": "Feature", "properties": { "location/lat": 8.0460171, "location/lng": 79.8375203, "city": "Puttalam", "street": "118/20, Al Hasanath Rd", "title": "ZBY's தமிழ் தொழிநுட்பத் தகவல்கள்", "phone": "+94 75 553 7924", "categoryName": "School" }, "geometry": { "type": "Point", "coordinates": [ 79.8375203, 8.0460171 ] } },
{ "type": "Feature", "properties": { "location/lat": 8.0360366, "location/lng": 79.8398016, "city": "Puttalam", "street": "2RPQ+CW7", "title": "jothirathana", "phone": "+94 71 882 6393", "categoryName": "School" }, "geometry": { "type": "Point", "coordinates": [ 79.8398016, 8.0360366 ] } },
{ "type": "Feature", "properties": { "location/lat": 8.0407913, "location/lng": 79.839386, "city": "Puttalam", "street": "2RRQ+8Q6 Ismailpuram", "title": "Wattakkandal Muslim Maha Vidyalaya", "phone": null, "categoryName": "School" }, "geometry": { "type": "Point", "coordinates": [ 79.839386, 8.0407913 ] } },
{ "type": "Feature", "properties": { "location/lat": 8.0407913, "location/lng": 79.839386, "city": "Puttalam", "street": "2RRQ+8Q6", "title": "M. T. Ayas", "phone": null, "categoryName": "School" }, "geometry": { "type": "Point", "coordinates": [ 79.839386, 8.0407913 ] } },
{ "type": "Feature", "properties": { "location/lat": 8.0407913, "location/lng": 79.839386, "city": "Puttalam", "street": "2RRQ+8Q6", "title": "HN WIRING", "phone": "+94 71 901 1145", "categoryName": "School" }, "geometry": { "type": "Point", "coordinates": [ 79.839386, 8.0407913 ] } },
{ "type": "Feature", "properties": { "location/lat": 8.0484775, "location/lng": 79.8409587, "city": "Puttalam", "street": "2RXR+99W, Unnamed Road", "title": "Al aksa masjith", "phone": null, "categoryName": "School" }, "geometry": { "type": "Point", "coordinates": [ 79.8409587, 8.0484775 ] } },
{ "type": "Feature", "properties": { "location/lat": 8.035832, "location/lng": 79.8356159, "city": "Puttalam", "street": "40 Canal Ln", "title": "Expolure", "phone": null, "categoryName": "School" }, "geometry": { "type": "Point", "coordinates": [ 79.8356159, 8.035832 ] } },
{ "type": "Feature", "properties": { "location/lat": 8.0408, "location/lng": 79.8394, "city": "Puttalam", "street": "Land Mass", "title": "Manal Kundu", "phone": "+94 75 310 5669", "categoryName": "School" }, "geometry": { "type": "Point", "coordinates": [ 79.8394, 8.0408 ] } },
{ "type": "Feature", "properties": { "location/lat": 8.0444486, "location/lng": 79.8542621, "city": "Puttalam", "street": "2VV3+QPC", "title": "Abdul Majeed Academy", "phone": "+94 323 137 711", "categoryName": "School" }, "geometry": { "type": "Point", "coordinates": [ 79.8542621, 8.0444486 ] } },
{ "type": "Feature", "properties": { "location/lat": 7.476646, "location/lng": 80.3548736, "city": "Kurunegala", "street": "3 වන පටුමග", "title": "Maliyadeva Adarsha Maha Vidyalaya - Kurunegala", "phone": "+94 372 223 802", "categoryName": "School" }, "geometry": { "type": "Point", "coordinates": [ 80.3548736, 7.476646 ] } },
{ "type": "Feature", "properties": { "location/lat": 7.4828527, "location/lng": 80.3624006, "city": "Kurunegala", "street": "F9M6+4XR, Kurunegala-Colombo , Town South", "title": "Maliyadeva Balika Vidyalaya", "phone": "+94 372 222 372", "categoryName": "School" }, "geometry": { "type": "Point", "coordinates": [ 80.3624006, 7.4828527 ] } },
{ "type": "Feature", "properties": { "location/lat": 7.4872639, "location/lng": 80.3620244, "city": "Kurunegala", "street": "St Anne's College", "title": "St. Anne's College", "phone": "+94 372 222 348", "categoryName": "School" }, "geometry": { "type": "Point", "coordinates": [ 80.3620244, 7.4872639 ] } },
{ "type": "Feature", "properties": { "location/lat": 7.4873765, "location/lng": 80.3595226, "city": "Kurunegala", "street": "Negombo Rd", "title": "Maliyadeva College", "phone": "+94 372 222 432", "categoryName": "School" }, "geometry": { "type": "Point", "coordinates": [ 80.3595226, 7.4873765 ] } },
{ "type": "Feature", "properties": { "location/lat": 7.4865676, "location/lng": 80.3628724, "city": "Kurunegala", "street": "Holy Family Balika, Holy Family Convent, Convent Road, 60000 Mihindu Mawatha", "title": "Holy Family Convent", "phone": "+94 372 223 287", "categoryName": "School" }, "geometry": { "type": "Point", "coordinates": [ 80.3628724, 7.4865676 ] } },
{ "type": "Feature", "properties": { "location/lat": 7.4770177, "location/lng": 80.3448551, "city": "Kurunegala", "street": null, "title": "Versim International school", "phone": "+94 71 161 2739", "categoryName": "School" }, "geometry": { "type": "Point", "coordinates": [ 80.3448551, 7.4770177 ] } },
{ "type": "Feature", "properties": { "location/lat": 7.4604189, "location/lng": 80.3728425, "city": "Kurunegala", "street": "F96F+548", "title": "Ku/Weherabanda Muslim vidyalaya live", "phone": null, "categoryName": "School" }, "geometry": { "type": "Point", "coordinates": [ 80.3728425, 7.4604189 ] } },
{ "type": "Feature", "properties": { "location/lat": 7.4917669, "location/lng": 80.3653424, "city": "Kurunegala", "street": "F9R8+P44", "title": "Ku/Lakdasa De Mel College", "phone": "+94 77 163 9928", "categoryName": "School" }, "geometry": { "type": "Point", "coordinates": [ 80.3653424, 7.4917669 ] } },
{ "type": "Feature", "properties": { "location/lat": 7.4610918, "location/lng": 80.3653939, "city": "Kurunegala", "street": "F968+C5", "title": "Lyceum Kurunegala- New School Complex", "phone": null, "categoryName": "School" }, "geometry": { "type": "Point", "coordinates": [ 80.3653939, 7.4610918 ] } },
{ "type": "Feature", "properties": { "location/lat": 7.4776685, "location/lng": 80.3553755, "city": "Kurunegala", "street": "F9H4+356, Pubudu Mawatha", "title": "Lexicon international pre school", "phone": "+94 372 220 805", "categoryName": "School" }, "geometry": { "type": "Point", "coordinates": [ 80.3553755, 7.4776685 ] } },
{ "type": "Feature", "properties": { "location/lat": 7.4756421, "location/lng": 80.3789645, "city": "Kurunegala", "street": "No 478 Kandy Rd", "title": "Royal International School", "phone": "+94 372 256 256", "categoryName": "School" }, "geometry": { "type": "Point", "coordinates": [ 80.3789645, 7.4756421 ] } },
{ "type": "Feature", "properties": { "location/lat": 7.4786619, "location/lng": 80.3558771, "city": "Kurunegala", "street": "2B, 4, 218 3 වන පටුමග", "title": "Little Star Nursery School and Day Care Centre", "phone": null, "categoryName": "School" }, "geometry": { "type": "Point", "coordinates": [ 80.3558771, 7.4786619 ] } },
{ "type": "Feature", "properties": { "location/lat": 7.4943456, "location/lng": 80.3689968, "city": "Kurunegala", "street": "F9V9+PHQ, Dambulla Rd", "title": "Sir John Kothalawala College", "phone": "+94 372 223 443", "categoryName": "School" }, "geometry": { "type": "Point", "coordinates": [ 80.3689968, 7.4943456 ] } },
{ "type": "Feature", "properties": { "location/lat": 7.5122036, "location/lng": 80.3343674, "city": "Kurunegala", "street": "G86M+VPQ", "title": "President Girls' College (National School)", "phone": "+94 372 237 480", "categoryName": "School" }, "geometry": { "type": "Point", "coordinates": [ 80.3343674, 7.5122036 ] } },
{ "type": "Feature", "properties": { "location/lat": 7.498568, "location/lng": 80.353725, "city": "Kurunegala", "street": "F9X3+CFH, Welangolla Estate", "title": "නිල් නෙතු බෙර නිෂ්පාදන", "phone": null, "categoryName": "School" }, "geometry": { "type": "Point", "coordinates": [ 80.353725, 7.498568 ] } },
{ "type": "Feature", "properties": { "location/lat": 7.4958016, "location/lng": 80.3679729, "city": "Kurunegala", "street": "No 105 Kurunegala - Dambulla Rd", "title": "Zahira College, Kurunegala kurunegala குருநாகல் ஸாஹிரா கல்லூரி", "phone": null, "categoryName": "School" }, "geometry": { "type": "Point", "coordinates": [ 80.3679729, 7.4958016 ] } },
{ "type": "Feature", "properties": { "location/lat": 7.494691, "location/lng": 80.3681082, "city": "Kurunegala", "street": "F9V9+V6H, Dambulla Rd", "title": "Vidura College Kurunegala - City Unit", "phone": "+94 74 252 2384", "categoryName": "School" }, "geometry": { "type": "Point", "coordinates": [ 80.3681082, 7.494691 ] } },
{ "type": "Feature", "properties": { "location/lat": 7.4990026, "location/lng": 80.3322993, "city": "Kurunegala", "street": null, "title": "Aswadduma School", "phone": null, "categoryName": "School" }, "geometry": { "type": "Point", "coordinates": [ 80.3322993, 7.4990026 ] } },
{ "type": "Feature", "properties": { "location/lat": 7.492404, "location/lng": 80.3474808, "city": "Kurunegala", "street": "F8RW+XX9", "title": "Hindu Tamil College", "phone": "+94 75 515 0308", "categoryName": "School" }, "geometry": { "type": "Point", "coordinates": [ 80.3474808, 7.492404 ] } },
{ "type": "Feature", "properties": { "location/lat": 7.4738342, "location/lng": 80.3274729, "city": "Kurunegala", "street": "390/1 Negombo Rd", "title": "Vidura Collage Colombo - Kurunegala Branch", "phone": "+94 372 226 996", "categoryName": "School" }, "geometry": { "type": "Point", "coordinates": [ 80.3274729, 7.4738342 ] } },
{ "type": "Feature", "properties": { "location/lat": 7.4834259, "location/lng": 80.3662837, "city": "Kurunegala", "street": "F9M8+9GF", "title": "Vision Education Academy", "phone": "+94 77 741 6625", "categoryName": "School" }, "geometry": { "type": "Point", "coordinates": [ 80.3662837, 7.4834259 ] } },
{ "type": "Feature", "properties": { "location/lat": 7.481876, "location/lng": 80.3591353, "city": "Kurunegala", "street": "27, 29 Bauddhaloka Mawatha", "title": "Kandy Royal International School (Kurunegala )", "phone": "+94 372 200 549", "categoryName": "School" }, "geometry": { "type": "Point", "coordinates": [ 80.3591353, 7.481876 ] } },
{ "type": "Feature", "properties": { "location/lat": 7.4820096, "location/lng": 80.359939, "city": "Kurunegala", "street": "No: 21, Upper Floor, Bauddhaloka Rd", "title": "UNEX College of Higher Education", "phone": "+94 372 222 772", "categoryName": "School" }, "geometry": { "type": "Point", "coordinates": [ 80.359939, 7.4820096 ] } },
{ "type": "Feature", "properties": { "location/lat": 7.4685347, "location/lng": 80.3259432, "city": "Kurunegala", "street": "F89G+C98", "title": "Vishvoda vidyalaya", "phone": null, "categoryName": "School" }, "geometry": { "type": "Point", "coordinates": [ 80.3259432, 7.4685347 ] } },
{ "type": "Feature", "properties": { "location/lat": 7.4583341, "location/lng": 80.363835, "city": "Kurunegala", "street": "F957+8GP, Wilbawa Rd", "title": "Main Gate - Lyceum New School", "phone": null, "categoryName": "School" }, "geometry": { "type": "Point", "coordinates": [ 80.363835, 7.4583341 ] } },
{ "type": "Feature", "properties": { "location/lat": 7.4807003, "location/lng": 80.3596303, "city": "Katugasthota", "street": "170 Kurunegala Rd", "title": "Green Angels International School", "phone": null, "categoryName": "School" }, "geometry": { "type": "Point", "coordinates": [ 80.3596303, 7.4807003 ] } },
{ "type": "Feature", "properties": { "location/lat": 7.4636119, "location/lng": 80.3648839, "city": "Kurunegala", "street": "F977+CXR Vilbawa", "title": "lilawathi school", "phone": null, "categoryName": "School" }, "geometry": { "type": "Point", "coordinates": [ 80.3648839, 7.4636119 ] } },
{ "type": "Feature", "properties": { "location/lat": 7.477731, "location/lng": 80.3424201, "city": "Kurunegala", "street": "597 Negombo Rd", "title": "New Sagarika Driving School", "phone": "+94 77 713 6150", "categoryName": "School" }, "geometry": { "type": "Point", "coordinates": [ 80.3424201, 7.477731 ] } },
{ "type": "Feature", "properties": { "location/lat": 7.4746807, "location/lng": 80.3795486, "city": "Kurunegala", "street": "F9FH+VRF", "title": "Royal International School Swimming Pool", "phone": null, "categoryName": "School" }, "geometry": { "type": "Point", "coordinates": [ 80.3795486, 7.4746807 ] } },
{ "type": "Feature", "properties": { "location/lat": 7.4871375, "location/lng": 80.359149, "city": "Kurunegala", "street": "F9P5+VM2, Negombo Rd", "title": "Maliyadeva College Auditorium", "phone": null, "categoryName": "School" }, "geometry": { "type": "Point", "coordinates": [ 80.359149, 7.4871375 ] } },
{ "type": "Feature", "properties": { "location/lat": 7.4774978, "location/lng": 80.3813179, "city": "Mallawapitiya", "street": "F9GJ+XGW", "title": "KU/Hizbulla Central College,Kurunegala", "phone": "+94 372 227 796", "categoryName": "School" }, "geometry": { "type": "Point", "coordinates": [ 80.3813179, 7.4774978 ] } },
{ "type": "Feature", "properties": { "location/lat": 7.4892288, "location/lng": 80.365281, "city": "Kurunegala", "street": "136/3 3 වන පටුමග", "title": "Green International Kids School", "phone": null, "categoryName": "School" }, "geometry": { "type": "Point", "coordinates": [ 80.365281, 7.4892288 ] } },
{ "type": "Feature", "properties": { "location/lat": 7.4848699, "location/lng": 80.3554353, "city": "Kurunegala", "street": "Hope Education Institution, (GATHIKA AUDITORIUM, Negombo Rd", "title": "Hope Education Institute", "phone": "+94 70 700 0784", "categoryName": "School" }, "geometry": { "type": "Point", "coordinates": [ 80.3554353, 7.4848699 ] } }
]
}
